Facility ID,Facility Name,Address,City/Town,State,ZIP Code,County/Parish,Telephone Number,Hospital Type,Hospital Ownership,Emergency Services,Meets criteria for promoting interoperability of EHRs,Meets criteria for birthing friendly designation,Hospital overall rating,Hospital overall rating footnote,MORT Group Measure Count,Count of Facility MORT Measures,Count of MORT Measures Better,Count of MORT Measures No Different,Count of MORT Measures Worse,MORT Group Footnote,Safety Group Measure Count,Count of Facility Safety Measures,Count of Safety Measures Better,Count of Safety Measures No Different,Count of Safety Measures Worse,Safety Group Footnote,READM Group Measure Count,Count of Facility READM Measures,Count of READM Measures Better,Count of READM Measures No Different,Count of READM Measures Worse,READM Group Footnote,Pt Exp Group Measure Count,Count of Facility Pt Exp Measures,Pt Exp Group Footnote,TE Group Measure Count,Count of Facility TE Measures,TE Group Footnote,,Latitude,Longitude
05015F,60th Medical Group (Travis AFB),101 Bodin Circle Bldg. 777,Travis AFB,CA,94535,SOLANO,(707) 423-7300,Acute Care - Department of Defense,Department of Defense,Yes,,,Not Available,22,Not Available,Not Available,Not Available,Not Available,Not Available,22,Not Available,Not Available,Not Available,Not Available,Not Available,22,Not Available,Not Available,Not Available,Not Available,Not Available,22,Not Available,Not Available,22,Not Available,Not Available,22,,38.2700215,-121.9637813
02013F,673rd Medical Group (Joint Base Elmendorf-Richardson),673 MDG 5955 Zeamer Ave,JBER,AK,99506,ANCHORAGE,(907) 384-1110,Acute Care - Department of Defense,Department of Defense,Yes,,,Not Available,22,Not Available,Not Available,Not Available,Not Available,Not Available,22,Not Available,Not Available,Not Available,Not Available,Not Available,22,Not Available,Not Available,Not Available,Not Available,Not Available,22,Not Available,Not Available,22,Not Available,Not Available,22,,61.235181,-149.744925
25039F,81st Medical Group (Keesler AFB),81 MDG 301 Fisher St. Suite 109,Biloxi,MS,39534,HARRISON,(228) 377-6393,Acute Care - Department of Defense,Department of Defense,Yes,,,Not Available,22,Not Available,Not Available,Not Available,Not Available,Not Available,22,Not Available,Not Available,Not Available,Not Available,Not Available,22,Not Available,Not Available,Not Available,Not Available,Not Available,22,Not Available,Not Available,22,Not Available,Not Available,22,,30.4096487,-88.9217879
36006F,88th Medical Group (Wright-Patterson AFB),88 MDG 4881 Sugar Maple Dr.,Wright-Patterson AFB,OH,45433,GREENE,(937) 257-9926,Acute Care - Department of Defense,Department of Defense,Yes,,,Not Available,22,Not Available,Not Available,Not Available,Not Available,Not Available,22,Not Available,Not Available,Not Available,Not Available,Not Available,22,Not Available,Not Available,Not Available,Not Available,Not Available,22,Not Available,Not Available,22,Not Available,Not Available,22,,39.8048573,-84.0384176
10021F,96th Medical Group (Eglin AFB),96 MDG 307 Boatner Rd Suite 114,Eglin AFB,FL,32542,OKALOOSA,(850) 883-8600,Acute Care - Department of Defense,Department of Defense,Yes,,,Not Available,22,Not Available,Not Available,Not Available,Not Available,Not Available,22,Not Available,Not Available,Not Available,Not Available,Not Available,22,Not Available,Not Available,Not Available,Not Available,Not Available,22,Not Available,Not Available,22,Not Available,Not Available,22,,30.4614772,-86.5551161
29001F,99th Medical Group (Nellis AFB),99 MDG 4700 Las Vegas Blvd,Nellis AFB,NV,89191,CLARK,(702) 653-2273,Acute Care - Department of Defense,Department of Defense,Yes,,,Not Available,22,Not Available,Not Available,Not Available,Not Available,Not Available,22,Not Available,Not Available,Not Available,Not Available,Not Available,22,Not Available,Not Available,Not Available,Not Available,Not Available,22,Not Available,Not Available,22,Not Available,Not Available,22,,36.2461056,-115.0495647
421301,ABBEVILLE AREA MEDICAL CENTER,420 THOMSON CIRCLE,ABBEVILLE,SC,29620,ABBEVILLE,(864) 366-1649,Critical Access Hospitals,Voluntary non-profit - Other,Yes,Y,,Not Available,16,7,1,0,1,0,,8,1,0,1,0,,11,3,0,3,0,,8,Not Available,5,12,7,,,34.1568248,-82.3817514
190034,ABBEVILLE GENERAL HOSPITAL,118 N HOSPITAL DR,ABBEVILLE,LA,70510,VERMILION,(337) 893-5466,Acute Care Hospitals,Government - Hospital District or Authority,Yes,Y,Y,3,,7,3,0,3,0,,8,2,0,2,0,,11,6,0,6,0,,8,8,,12,10,,,29.973708,-92.1077483
240057,ABBOTT NORTHWESTERN HOSPITAL,800 EAST 28TH STREET,MINNEAPOLIS,MN,55407,HENNEPIN,(612) 863-4000,Acute Care Hospitals,Voluntary non-profit - Private,Yes,Y,Y,4,,7,7,1,6,0,,8,8,1,6,1,,11,11,2,7,2,,8,8,,12,10,,,44.9541746,-93.2615723
390231,ABINGTON MEMORIAL HOSPITAL,1200 OLD YORK ROAD,ABINGTON,PA,19001,MONTGOMERY,(215) 481-2000,Acute Care Hospitals,Proprietary,Yes,Y,Y,2,,7,7,1,5,1,,8,8,1,7,0,,11,11,0,7,4,,8,8,,12,11,,,40.1192757,-75.1206981
141322,ABRAHAM LINCOLN MEMORIAL HOSPITAL,200 STAHLHUT DRIVE,LINCOLN,IL,62656,LOGAN,(217) 732-2161,Critical Access Hospitals,Voluntary non-profit - Private,Yes,,,2,,7,3,0,3,0,,8,1,0,1,0,,11,6,1,5,0,,8,8,,12,5,,,40.1537478,-89.3895011
30094,ABRAZO ARROWHEAD HOSPITAL,18701 NORTH 67TH AVENUE,GLENDALE,AZ,85308,MARICOPA,(623) 561-1000,Acute Care Hospitals,Proprietary,Yes,Y,Y,2,,7,7,0,7,0,,8,7,4,3,0,,11,9,0,8,1,,8,8,,12,10,,,33.6547083,-112.2011817
30030,ABRAZO CENTRAL CAMPUS,2000 WEST BETHANY HOME ROAD,PHOENIX,AZ,85015,MARICOPA,(602) 249-0212,Acute Care Hospitals,Physician,Yes,Y,,2,,7,5,0,5,0,,8,6,0,6,0,,11,6,0,6,0,,8,8,,12,8,,,33.525601,-112.1020655
30083,ABRAZO SCOTTSDALE CAMPUS,3929 EAST BELL ROAD,PHOENIX,AZ,85032,MARICOPA,(602) 923-5609,Acute Care Hospitals,Proprietary,Yes,Y,,1,,7,4,0,4,0,,8,5,0,5,0,,11,6,1,3,2,,8,8,,12,8,,,33.6394395,-111.9974204
30110,ABRAZO WEST CAMPUS,13677 WEST MCDOWELL ROAD,GOODYEAR,AZ,85395,MARICOPA,(623) 882-1970,Acute Care Hospitals,Proprietary,Yes,Y,Y,1,,7,6,0,6,0,,8,7,2,5,0,,11,8,0,7,1,,8,8,,12,9,,,33.4619498,-112.3535453
191322,ABROM KAPLAN MEMORIAL HOSPITAL,1310 WEST SEVENTH STREET,KAPLAN,LA,70548,VERMILION,(337) 643-8300,Critical Access Hospitals,Voluntary non-profit - Private,Yes,Y,,Not Available,16,7,Not Available,Not Available,Not Available,Not Available,5,8,Not Available,Not Available,Not Available,Not Available,5,11,2,0,2,0,,8,Not Available,5,12,7,,,30.0080737,-92.2970706
190044,ACADIA GENERAL HOSPITAL,1305 CROWLEY RAYNE HIGHWAY,CROWLEY,LA,70526,ACADIA,(337) 783-3222,Acute Care Hospitals,Voluntary non-profit - Private,Yes,Y,,3,,7,3,0,3,0,,8,6,0,6,0,,11,9,1,8,0,,8,8,,12,7,,,30.2260114,-92.3636007
191319,ACADIA ST LANDRY,810 SOUTH BROADWAY STREET,CHURCH POINT,LA,70525,ACADIA,(337) 684-5435,Critical Access Hospitals,Government - Hospital District or Authority,Yes,Y,,Not Available,16,7,Not Available,Not Available,Not Available,Not Available,5,8,Not Available,Not Available,Not Available,Not Available,5,11,Not Available,Not Available,Not Available,Not Available,5,8,Not Available,5,12,Not Available,5,,30.3955793,-92.2111568
190318,ACADIAN MEDICAL CENTER,3501 HIGHWAY 190 EAST,EUNICE,LA,70535,ST. LANDRY,(337) 580-7903,Acute Care Hospitals,Proprietary,Yes,Y,Y,Not Available,16,7,2,0,2,0,,8,2,0,2,0,,11,5,0,4,1,,8,8,,12,9,,,30.4969073,-92.3860674
364050,"ACCESS HOSPITAL DAYTON, LLC",2611 WAYNE AVENUE,DAYTON,OH,45420,MONTGOMERY,(937) 965-4925,Psychiatric,Voluntary non-profit - Private,No,,,Not Available,19,Not Available,Not Available,Not Available,Not Available,Not Available,19,Not Available,Not Available,Not Available,Not Available,Not Available,19,Not Available,Not Available,Not Available,Not Available,Not Available,19,Not Available,Not Available,19,Not Available,Not Available,19,,39.7357328,-84.1544998
390163,ACMH HOSPITAL,ONE NOLTE DRIVE,KITTANNING,PA,16201,ARMSTRONG,(724) 543-8500,Acute Care Hospitals,Voluntary non-profit - Private,Yes,Y,Y,1,,7,2,0,2,0,,8,5,0,5,0,,11,9,0,9,0,,8,8,,12,10,,,40.8107265,-79.5624534
670102,"AD HOSPITAL EAST, LLC","12950 EAST FREEWAY, SUITE 100",HOUSTON,TX,77015,HARRIS,(713) 330-3897,Acute Care Hospitals,Proprietary,Yes,,,Not Available,16,7,Not Available,Not Available,Not Available,Not Available,5,8,2,0,2,0,,11,3,0,3,0,,8,Not Available,5,12,4,,,29.7706323,-95.2003588
174022,ADAIR ACUTE CARE AT OSAWATOMIE STATE HOSPITAL,500 STATE HOSPITAL DRIVE,OSAWATOMIE,KS,66064,MIAMI,(913) 755-7100,Psychiatric,Government - State,No,,,Not Available,19,Not Available,Not Available,Not Available,Not Available,Not Available,19,Not Available,Not Available,Not Available,Not Available,Not Available,19,Not Available,Not Available,Not Available,Not Available,Not Available,19,Not Available,Not Available,19,Not Available,Not Available,19,,38.5101213,-94.9400329
161310,ADAIR COUNTY MEMORIAL HOSPITAL,609 SE KENT,GREENFIELD,IA,50849,ADAIR,(641) 743-2123,Critical Access Hospitals,Government - Local,Yes,Y,,Not Available,16,7,Not Available,Not Available,Not Available,Not Available,5,8,Not Available,Not Available,Not Available,Not Available,5,11,1,0,1,0,,8,Not Available,5,12,3,,,41.3038341,-94.4517377
361326,ADAMS COUNTY REGIONAL MEDICAL CENTER,230 MEDICAL CENTER DRIVE,SEAMAN,OH,45679,ADAMS,(937) 386-3400,Critical Access Hospitals,Government - Local,Yes,Y,,2,,7,3,0,3,0,,8,1,0,1,0,,11,6,0,6,0,,8,Not Available,5,12,3,,,38.9339242,-83.5847767
151330,ADAMS MEMORIAL HOSPITAL,1100 MERCER AVE,DECATUR,IN,46733,ADAMS,(260) 724-2145,Critical Access Hospitals,Government - Local,Yes,Y,Y,Not Available,16,7,2,0,2,0,,8,1,0,1,0,,11,5,1,4,0,,8,8,,12,9,,,40.8173831,-84.9150675
220062,ADCARE HOSPITAL OF WORCESTER INC,107 LINCOLN STREET,WORCESTER,MA,1605,WORCESTER,(508) 799-9000,Acute Care Hospitals,Proprietary,No,Y,,Not Available,16,7,Not Available,Not Available,Not Available,Not Available,5,8,1,1,0,0,,11,1,0,0,1,,8,Not Available,5,12,2,,,42.2763338,-71.7948449
361331,ADENA FAYETTE MEDICAL CENTER,1430 COLUMBUS AVENUE,WASHINGTON CH,OH,43160,FAYETTE,(740) 333-2719,Critical Access Hospitals,Government - Local,Yes,Y,,Not Available,16,7,1,0,1,0,,8,1,0,1,0,,11,7,0,7,0,,8,Not Available,5,12,8,,,39.5480387,-83.4272233
361334,ADENA PIKE MEDICAL CENTER,100 DAWN LANE,WAVERLY,OH,45690,PIKE,(740) 947-2186,Critical Access Hospitals,Voluntary non-profit - Private,Yes,Y,,Not Available,16,7,Not Available,Not Available,Not Available,Not Available,5,8,1,0,1,0,,11,3,0,3,0,,8,Not Available,5,12,7,,,39.1164703,-83.0040568
360159,ADENA REGIONAL MEDICAL CENTER,272 HOSPITAL ROAD,CHILLICOTHE,OH,45601,ROSS,(740) 779-7500,Acute Care Hospitals,Voluntary non-profit - Private,Yes,Y,Y,3,,7,7,0,7,0,,8,8,2,6,0,,11,11,0,11,0,,8,8,,12,11,,,39.3962346,-82.9683385
330079,ADIRONDACK MEDICAL CENTER - SARANAC LAKE,"2233 STATE ROUTE 86, PO BOX 471",SARANAC LAKE,NY,12983,FRANKLIN,(518) 891-4141,Acute Care Hospitals,Voluntary non-profit - Other,Yes,Y,Y,2,,7,2,0,2,0,,8,4,0,4,0,,11,9,0,9,0,,8,8,,12,9,,,44.3456201,-74.1434758
670321,ADVANCED DALLAS HOSPITALS AND CLINICS,7502 GREENVILLE AVENUE,DALLAS,TX,75231,DALLAS,(214) 221-6000,Acute Care Hospitals,Proprietary,Yes,,,Not Available,5,Not Available,Not Available,Not Available,Not Available,Not Available,5,Not Available,Not Available,Not Available,Not Available,Not Available,5,Not Available,Not Available,Not Available,Not Available,Not Available,5,Not Available,Not Available,5,Not Available,Not Available,5,,32.883752,-96.75802
390323,ADVANCED SURGICAL HOSPITAL,100 TRICH DRIVE,WASHINGTON,PA,15301,WASHINGTON,(724) 884-0710,Acute Care Hospitals,Physician,No,Y,,Not Available,16,7,Not Available,Not Available,Not Available,Not Available,5,8,2,0,2,0,,11,3,0,2,1,,8,8,,12,2,,,40.1565061,-80.2790841
60125,ADVENTHEALTH CASTLE ROCK,2350 MEADOWS BLVD,CASTLE ROCK,CO,80109,DOUGLAS,(720) 455-5000,Acute Care Hospitals,Voluntary non-profit - Private,Yes,Y,Y,4,,7,4,0,4,0,,8,5,1,4,0,,11,7,0,7,0,,8,8,,12,9,,,39.4052753,-104.8839168
450152,ADVENTHEALTH CENTRAL TEXAS,2201 S CLEAR CREEK ROAD,KILLEEN,TX,76542,BELL,(254) 526-7523,Acute Care Hospitals,Voluntary non-profit - Church,Yes,Y,Y,4,,7,6,0,5,1,,8,7,1,6,0,,11,7,0,6,1,,8,8,,12,11,,,31.1136397,-97.8014947
100211,ADVENTHEALTH DADE CITY,13100 FT KING RD,DADE CITY,FL,33525,PASCO,(352) 568-1100,Acute Care Hospitals,Proprietary,No,Y,,4,,7,5,0,5,0,,8,4,1,3,0,,11,6,0,5,1,,8,8,,12,7,,,28.3479242,-82.2003932
100068,ADVENTHEALTH DAYTONA BEACH,301 MEMORIAL MEDICAL PARKWAY,DAYTONA BEACH,FL,32117,VOLUSIA,(386) 676-6000,Acute Care Hospitals,Voluntary non-profit - Church,Yes,Y,Y,5,,7,7,1,6,0,,8,7,3,4,0,,11,9,0,7,2,,8,8,,12,10,,,29.243628,-81.1081795
100045,ADVENTHEALTH DELAND,701 W PLYMOUTH AVE,DELAND,FL,32720,VOLUSIA,(386) 943-4772,Acute Care Hospitals,Voluntary non-profit - Church,Yes,Y,,4,,7,6,0,6,0,,8,7,2,5,0,,11,7,0,6,1,,8,8,,12,7,,,29.0439173,-81.317309
100072,ADVENTHEALTH FISH MEMORIAL,1055 SAXON BLVD,ORANGE CITY,FL,32763,VOLUSIA,(386) 917-5000,Acute Care Hospitals,Voluntary non-profit - Church,Yes,Y,Y,4,,7,6,0,6,0,,8,7,1,6,0,,11,8,0,7,1,,8,8,,12,9,,,28.9142384,-81.285777
110023,ADVENTHEALTH GORDON,1035 RED BUD ROAD,CALHOUN,GA,30701,GORDON,(706) 629-2895,Acute Care Hospitals,Voluntary non-profit - Church,No,Y,Y,4,,7,6,0,6,0,,8,5,0,5,0,,11,8,0,8,0,,8,8,,12,10,,,34.5115733,-84.9262082
100137,ADVENTHEALTH HEART OF FLORIDA,40100 HWY 27,DAVENPORT,FL,33837,POLK,(863) 422-4971,Acute Care Hospitals,Proprietary,Yes,Y,Y,1,,7,6,0,6,0,,8,7,0,5,2,,11,8,0,7,1,,8,8,,12,8,,,28.1814928,-81.6416944
340023,ADVENTHEALTH HENDERSONVILLE,100 HOSPITAL DRIVE,HENDERSONVILLE,NC,28792,HENDERSON,(828) 684-8501,Acute Care Hospitals,Voluntary non-profit - Private,Yes,Y,Y,5,,7,4,0,4,0,,8,5,0,5,0,,11,9,1,8,0,,8,8,,12,8,,,35.3891123,-82.4879558
100099,ADVENTHEALTH LAKE WALES,410 S 11TH ST,LAKE WALES,FL,33853,POLK,(863) 676-1433,Acute Care Hospitals,Proprietary,Yes,Y,,1,,7,4,0,4,0,,8,3,0,3,0,,11,6,0,5,1,,8,8,,12,7,,,27.895852,-81.565518
110050,ADVENTHEALTH MURRAY,"707 OLD DALTON ELLIJAY ROAD, PO BOX 1406",CHATSWORTH,GA,30705,MURRAY,(706) 517-2031,Acute Care Hospitals,Voluntary non-profit - Private,Yes,Y,,Not Available,16,7,2,0,2,0,,8,Not Available,Not Available,Not Available,Not Available,5,11,4,2,2,0,,8,Not Available,5,12,7,,,34.7799726,-84.7831554
100014,ADVENTHEALTH NEW SMYRNA BEACH,401 PALMETTO ST,NEW SMYRNA BEACH,FL,32170,VOLUSIA,(386) 424-5100,Acute Care Hospitals,Voluntary non-profit - Church,Yes,Y,,3,,7,6,0,6,0,,8,6,0,5,1,,11,10,0,10,0,,8,8,,12,7,,,29.0202552,-80.9217533
100055,ADVENTHEALTH NORTH PINELLAS,1395 S PINELLAS AVE,TARPON SPRINGS,FL,34689,PINELLAS,(727) 942-5000,Acute Care Hospitals,Voluntary non-profit - Other,Yes,Y,,3,,7,6,0,6,0,,8,6,1,5,0,,11,8,0,7,1,,8,8,,12,7,,,28.1323928,-82.7578905
100062,ADVENTHEALTH OCALA,1500 SW 1ST AVE,OCALA,FL,34474,MARION,(352) 351-7200,Acute Care Hospitals,Government - Hospital District or Authority,Yes,Y,Y,3,,7,7,0,7,0,,8,7,6,1,0,,11,9,0,8,1,,8,8,,12,8,,,29.1753113,-82.1388933
100007,ADVENTHEALTH ORLANDO,601 E ROLLINS ST,ORLANDO,FL,32803,ORANGE,(407) 303-1976,Acute Care Hospitals,Voluntary non-profit - Private,Yes,Y,Y,3,,7,7,3,4,0,,8,8,6,2,0,,11,11,0,4,7,,8,8,,12,10,,,28.5751245,-81.3696726
170014,ADVENTHEALTH OTTAWA,1301 S MAIN STREET,OTTAWA,KS,66067,FRANKLIN,(785) 229-8200,Acute Care Hospitals,Government - Local,No,Y,Y,2,,7,3,0,3,0,,8,2,0,2,0,,11,9,1,8,0,,8,8,,12,8,,,38.5963561,-95.2677091
100363,ADVENTHEALTH PALM COAST PARKWAY,1 ADVENTHEALTH WAY,PALM COAST,FL,32137,FLAGLER,(386) 302-1800,Acute Care Hospitals,Voluntary non-profit - Private,Yes,,,Not Available,5,Not Available,Not Available,Not Available,Not Available,Not Available,5,Not Available,Not Available,Not Available,Not Available,Not Available,5,Not Available,Not Available,Not Available,Not Available,Not Available,5,Not Available,Not Available,5,Not Available,Not Available,5,,29.551974,-81.244047
451323,ADVENTHEALTH ROLLINS BROOK,608 NORTH KEY AVENUE,LAMPASAS,TX,76550,LAMPASAS,(512) 556-3682,Critical Access Hospitals,Voluntary non-profit - Private,Yes,Y,,Not Available,16,7,1,0,1,0,,8,Not Available,Not Available,Not Available,Not Available,5,11,3,0,3,0,,8,Not Available,5,12,6,,,31.072363,-98.1862471
100109,ADVENTHEALTH SEBRING,4200 SUN N LAKE BLVD,SEBRING,FL,33872,HIGHLANDS,(863) 314-4466,Acute Care Hospitals,Voluntary non-profit - Private,Yes,Y,Y,3,,7,6,1,5,0,,8,6,2,4,0,,11,9,0,8,1,,8,8,,12,9,,,27.5396502,-81.5105882
170104,ADVENTHEALTH SHAWNEE MISSION,9100 W 74TH STREET,SHAWNEE MISSION,KS,66204,JOHNSON,(913) 676-2152,Acute Care Hospitals,Voluntary non-profit - Church,Yes,Y,Y,4,,7,7,0,7,0,,8,8,2,6,0,,11,11,0,10,1,,8,8,,12,11,,,38.9957891,-94.6915135
100173,ADVENTHEALTH TAMPA,3100 E FLETCHER AVE,TAMPA,FL,33613,HILLSBOROUGH,(813) 615-7200,Acute Care Hospitals,Voluntary non-profit - Private,Yes,Y,Y,2,,7,7,0,7,0,,8,8,2,6,0,,11,9,1,6,2,,8,8,,12,9,,,28.0713627,-82.4234311
100057,ADVENTHEALTH WATERMAN,1000 WATERMAN WAY,TAVARES,FL,32778,LAKE,(352) 253-3300,Acute Care Hospitals,Voluntary non-profit - Church,No,Y,Y,4,,7,7,0,7,0,,8,7,1,6,0,,11,9,0,9,0,,8,8,,12,10,,,28.8240952,-81.7118549
101300,ADVENTHEALTH WAUCHULA,735 S 5TH AVE,WAUCHULA,FL,33873,HARDEE,(863) 773-3101,Critical Access Hospitals,Voluntary non-profit - Private,Yes,Y,,Not Available,16,7,Not Available,Not Available,Not Available,Not Available,5,8,1,0,1,0,,11,Not Available,Not Available,Not Available,Not Available,5,8,8,,12,5,,,27.5393581,-81.8069785
100319,ADVENTHEALTH WESLEY CHAPEL,2600 BRUCE B DOWNS BLVD,WESLEY CHAPEL,FL,33544,PASCO,(813) 929-5490,Acute Care Hospitals,Voluntary non-profit - Private,Yes,Y,Y,4,,7,6,0,6,0,,8,7,1,6,0,,11,8,0,8,0,,8,8,,12,9,,,28.1952918,-82.3519704
50133,ADVENTIST HEALTH AND RIDEOUT,726 4TH ST,MARYSVILLE,CA,95901,YUBA,(530) 749-4300,Acute Care Hospitals,Government - Federal,Yes,Y,Y,2,,7,7,0,7,0,,8,7,2,5,0,,11,11,0,9,2,,8,8,,12,10,,,39.1381501,-121.5942332
50455,ADVENTIST HEALTH BAKERSFIELD,2615 CHESTER AVENUE,BAKERSFIELD,CA,93301,KERN,(661) 395-3000,Acute Care Hospitals,Voluntary non-profit - Private,Yes,Y,Y,2,,7,6,0,5,1,,8,7,2,5,0,,11,10,0,10,0,,8,8,,12,11,,,35.3833744,-119.0206543
120006,ADVENTIST HEALTH CASTLE,640 ULUKAHIKI ST,KAILUA,HI,96734,HONOLULU,(808) 263-5142,Acute Care Hospitals,Voluntary non-profit - Church,Yes,Y,Y,5,,7,6,0,6,0,,8,6,2,4,0,,11,10,1,9,0,,8,8,,12,9,,,21.3808543,-157.7577795
51317,ADVENTIST HEALTH CLEARLAKE,15630 18TH AVE - HWY 53,CLEARLAKE,CA,95422,LAKE,(707) 994-6486,Critical Access Hospitals,Voluntary non-profit - Private,Yes,Y,,3,,7,4,0,4,0,,8,1,0,1,0,,11,6,0,6,0,,8,8,,12,6,,,38.9356322,-122.6201815
50608,ADVENTIST HEALTH DELANO,1401 GARCES HIGHWAY,DELANO,CA,93215,KERN,(661) 725-4800,Acute Care Hospitals,Proprietary,Yes,,Y,Not Available,16,7,2,0,2,0,,8,2,1,0,1,,11,4,0,4,0,,8,8,,12,8,,,35.7623437,-119.2389723
50121,ADVENTIST HEALTH HANFORD,115 MALL DRIVE,HANFORD,CA,93230,KINGS,(209) 410-7200,Acute Care Hospitals,Voluntary non-profit - Private,Yes,Y,Y,1,,7,6,0,4,2,,8,7,1,6,0,,11,7,0,6,1,,8,8,,12,11,,,36.3232171,-119.667877
51310,ADVENTIST HEALTH HOWARD MEMORIAL,1 MARCELA DR,WILLITS,CA,95490,MENDOCINO,(707) 456-3031,Critical Access Hospitals,Voluntary non-profit - Church,Yes,Y,,5,,7,3,0,3,0,,8,3,0,3,0,,11,7,1,5,1,,8,8,,12,6,,,39.3897847,-123.3388366
50336,ADVENTIST HEALTH LODI MEMORIAL,975 S FAIRMONT AVENUE,LODI,CA,95240,SAN JOAQUIN,(209) 334-3411,Acute Care Hospitals,Voluntary non-profit - Other,Yes,Y,Y,3,,7,5,0,5,0,,8,6,1,4,1,,11,6,1,5,0,,8,8,,12,10,,,38.1214679,-121.2869098
380060,ADVENTIST HEALTH PORTLAND,10123 SE MARKET STREET,PORTLAND,OR,97216,MULTNOMAH,(503) 257-2500,Acute Care Hospitals,Voluntary non-profit - Church,Yes,Y,Y,2,,7,7,0,7,0,,8,7,1,6,0,,11,8,1,6,1,,8,8,,12,11,,,45.5128537,-122.5585121
50192,ADVENTIST HEALTH REEDLEY,372 W CYPRESS AVE,REEDLEY,CA,93654,FRESNO,(559) 638-8155,Acute Care Hospitals,Voluntary non-profit - Private,No,Y,Y,Not Available,16,7,Not Available,Not Available,Not Available,Not Available,5,8,1,0,1,0,,11,1,0,1,0,,8,8,,12,7,,,36.6081792,-119.4531164
50335,ADVENTIST HEALTH SONORA,1000 GREENLEY ROAD,SONORA,CA,95370,TUOLUMNE,(209) 536-5000,Acute Care Hospitals,Voluntary non-profit - Church,No,Y,Y,2,,7,6,0,6,0,,8,5,0,4,1,,11,10,1,8,1,,8,8,,12,11,,,37.9773582,-120.3711158
50013,ADVENTIST HEALTH ST HELENA,10 WOODLAND ROAD,SAINT HELENA,CA,94574,NAPA,(707) 963-3611,Acute Care Hospitals,Voluntary non-profit - Private,No,Y,,5,,7,7,0,7,0,,8,5,0,5,0,,11,11,1,10,0,,8,8,,12,8,,,38.5425498,-122.4748281
51301,ADVENTIST HEALTH TEHACHAPI VALLEY,1100 MAGELLAN,TEHACHAPI,CA,93561,KERN,(661) 868-6800,Critical Access Hospitals,Government - Hospital District or Authority,Yes,Y,,Not Available,16,7,2,0,2,0,,8,2,0,2,0,,11,4,0,4,0,,8,8,,12,6,,,35.1476985,-118.4509007
381317,ADVENTIST HEALTH TILLAMOOK,1000 THIRD STREET,TILLAMOOK,OR,97141,TILLAMOOK,(503) 815-2260,Critical Access Hospitals,Voluntary non-profit - Church,Yes,Y,,3,,7,3,0,3,0,,8,1,0,1,0,,11,6,0,6,0,,8,8,,12,4,,,45.4568775,-123.854225
50784,ADVENTIST HEALTH TULARE,869 NORTH CHERRY STREET,TULARE,CA,93274,TULARE,(559) 688-0821,Acute Care Hospitals,Voluntary non-profit - Private,Yes,Y,Y,Not Available,16,7,2,0,2,0,,8,2,0,2,0,,11,4,0,4,0,,8,8,,12,7,,,36.2211168,-119.3385333
50301,ADVENTIST HEALTH UKIAH VALLEY,275 HOSPITAL DRIVE,UKIAH,CA,95482,MENDOCINO,(707) 462-3111,Acute Care Hospitals,Voluntary non-profit - Church,Yes,Y,Y,5,,7,4,0,4,0,,8,5,1,4,0,,11,9,1,7,1,,8,8,,12,11,,,39.1530652,-123.2028906
54074,ADVENTIST HEALTH VALLEJO,525 OREGON ST,VALLEJO,CA,94590,SOLANO,(707) 648-2200,Psychiatric,Voluntary non-profit - Private,No,,,Not Available,19,Not Available,Not Available,Not Available,Not Available,Not Available,19,Not Available,Not Available,Not Available,Not Available,Not Available,19,Not Available,Not Available,Not Available,Not Available,Not Available,19,Not Available,Not Available,19,Not Available,Not Available,19,,38.11784,-122.2490219
50103,ADVENTIST HEALTH WHITE MEMORIAL,1720 CESAR E CHAVEZ AVENUE,LOS ANGELES,CA,90033,LOS ANGELES,(323) 268-5000,Acute Care Hospitals,Voluntary non-profit - Church,No,Y,Y,3,,7,4,0,4,0,,8,6,1,5,0,,11,6,0,5,1,,8,8,,12,8,,,34.0503652,-118.2173967
50350,ADVENTIST HEALTH WHITE MEMORIAL MONTEBELLO,309 W BEVERLY BLVD,MONTEBELLO,CA,90640,LOS ANGELES,(323) 726-1222,Acute Care Hospitals,Voluntary non-profit - Private,Yes,,Y,2,,7,4,0,4,0,,8,5,1,3,1,,11,4,0,2,2,,8,8,,12,9,,,34.0155611,-118.1000602
210060,ADVENTIST HEALTHCARE FORT WASHINGTON MEDICAL CTR,11711 LIVINGSTON ROAD,FORT WASHINGTON,MD,20744,PRINCE GEORGES,(301) 292-7000,Acute Care Hospitals,Voluntary non-profit - Other,Yes,Y,,2,,7,4,0,4,0,,8,3,0,3,0,,11,7,0,5,2,,8,8,,12,7,,,38.7284763,-76.9921175
210057,ADVENTIST HEALTHCARE SHADY GROVE MEDICAL CENTER,9901 MEDICAL CENTER DRIVE,ROCKVILLE,MD,20850,MONTGOMERY,(240) 826-6527,Acute Care Hospitals,Voluntary non-profit - Private,Yes,Y,Y,2,,7,6,0,6,0,,8,7,2,5,0,,11,8,0,6,2,,8,8,,12,9,,,39.0973449,-77.1971116
210016,ADVENTIST HEALTHCARE WHITE OAK MEDICAL CENTER,11890 HEALING WAY,SILVER SPRING,MD,20904,MONTGOMERY,(240) 637-4000,Acute Care Hospitals,Voluntary non-profit - Private,Yes,Y,Y,3,,7,7,0,7,0,,8,7,1,6,0,,11,9,0,6,3,,8,8,,12,9,,,39.0495287,-76.9573463
140122,ADVENTIST HINSDALE HOSPITAL,120 NORTH OAK ST,HINSDALE,IL,60521,DU PAGE,(630) 856-9000,Acute Care Hospitals,Voluntary non-profit - Private,Yes,Y,Y,4,,7,7,1,6,0,,8,8,2,5,1,,11,9,0,8,1,,8,8,,12,10,,,41.8057748,-87.9210697
140065,ADVENTIST LA GRANGE MEMORIAL HOSPITAL,5101 S WILLOW SPRINGS RD,LA GRANGE,IL,60525,COOK,(708) 352-1200,Acute Care Hospitals,Voluntary non-profit - Church,Yes,Y,,4,,7,6,0,6,0,,8,7,2,5,0,,11,7,1,6,0,,8,8,,12,9,,,41.7967451,-87.8863882
140208,ADVOCATE CHRIST HOSPITAL & MEDICAL CENTER,4440 W 95TH STREET,OAK LAWN,IL,60453,COOK,(708) 684-8000,Acute Care Hospitals,Voluntary non-profit - Church,Yes,Y,Y,2,,7,7,2,5,0,,8,8,2,4,2,,11,11,0,9,2,,8,8,,12,10,,,41.7234117,-87.7330709
140202,ADVOCATE CONDELL MEDICAL CENTER,801 S MILWAUKEE AVE,LIBERTYVILLE,IL,60048,LAKE,(847) 362-2900,Acute Care Hospitals,Voluntary non-profit - Private,Yes,Y,Y,4,,7,7,1,6,0,,8,7,3,4,0,,11,9,0,8,1,,8,8,,12,11,,,42.2749461,-87.9566067
140288,ADVOCATE GOOD SAMARITAN HOSPITAL,3815 HIGHLAND AVENUE,DOWNERS GROVE,IL,60515,DU PAGE,(630) 275-5900,Acute Care Hospitals,Voluntary non-profit - Private,Yes,Y,Y,3,,7,7,0,7,0,,8,8,1,6,1,,11,9,0,8,1,,8,8,,12,11,,,41.8176201,-88.0083089
140291,ADVOCATE GOOD SHEPHERD HOSPITAL,450 WEST HIGHWAY 22,BARRINGTON,IL,60010,LAKE,(847) 381-9600,Acute Care Hospitals,Voluntary non-profit - Church,Yes,Y,Y,4,,7,7,1,6,0,,8,8,3,5,0,,11,9,1,7,1,,8,8,,12,11,,,42.1913463,-88.1678668
140182,ADVOCATE ILLINOIS MASONIC MEDICAL CENTER,836 WEST WELLINGTON AVENUE,CHICAGO,IL,60657,COOK,(773) 975-1600,Acute Care Hospitals,Voluntary non-profit - Private,Yes,Y,Y,3,,7,6,1,5,0,,8,7,0,7,0,,11,10,0,8,2,,8,8,,12,9,,,41.9367723,-87.6511754
140223,ADVOCATE LUTHERAN GENERAL HOSPITAL,1775 DEMPSTER ST,PARK RIDGE,IL,60068,COOK,(847) 723-2210,Acute Care Hospitals,Voluntary non-profit - Church,Yes,Y,Y,5,,7,7,3,4,0,,8,8,2,6,0,,11,11,0,11,0,,8,8,,12,10,,,42.0392086,-87.8474014
140030,ADVOCATE SHERMAN HOSPITAL,1425 NORTH RANDALL ROAD,ELGIN,IL,60123,KANE,(847) 742-9800,Acute Care Hospitals,Voluntary non-profit - Private,Yes,Y,Y,4,,7,7,0,7,0,,8,8,2,6,0,,11,10,0,10,0,,8,8,,12,11,,,42.0552496,-88.3374777
140048,ADVOCATE TRINITY HOSPITAL,2320 E 93RD ST,CHICAGO,IL,60617,COOK,(773) 967-5002,Acute Care Hospitals,Voluntary non-profit - Other,Yes,Y,Y,2,,7,6,1,5,0,,8,6,1,5,0,,11,9,0,6,3,,8,8,,12,11,,,41.7265222,-87.5679334
144009,"AERIES HEALTHCARE OF ILLINOIS, INC., DBA RIVEREDGE HOSPITAL",8311 WEST ROOSEVELT ROAD,FOREST PARK,IL,60130,COOK,(708) 771-7000,Psychiatric,Proprietary,No,,,Not Available,19,Not Available,Not Available,Not Available,Not Available,Not Available,19,Not Available,Not Available,Not Available,Not Available,Not Available,19,Not Available,Not Available,Not Available,Not Available,Not Available,19,Not Available,Not Available,19,Not Available,Not Available,19,,41.864992,-87.8042102
50226,AHMC ANAHEIM REGIONAL MEDICAL CENTER,1111 W LA PALMA AVENUE,ANAHEIM,CA,92801,ORANGE,(714) 774-1450,Acute Care Hospitals,Voluntary non-profit - Private,Yes,Y,Y,3,,7,5,1,4,0,,8,5,0,5,0,,11,6,0,3,3,,8,8,,12,8,,,33.8480384,-117.9335044
50289,AHMC SETON MEDICAL CENTER,1900 SULLIVAN AVENUE,DALY CITY,CA,94015,SAN MATEO,(650) 992-4000,Acute Care Hospitals,Voluntary non-profit - Church,Yes,Y,,1,,7,7,0,7,0,,8,5,0,5,0,,11,8,0,8,0,,8,8,,12,8,,,37.6796714,-122.4743635
390333,"AHN EMERUS WESTMORELAND, LLC",6321 ROUTE 30,GREENSBURG,PA,15601,WESTMORELAND,(787) 295-4735,Acute Care Hospitals,Proprietary,Yes,Y,,Not Available,16,7,Not Available,Not Available,Not Available,Not Available,5,8,Not Available,Not Available,Not Available,Not Available,5,11,1,0,1,0,,8,8,,12,7,,,40.3104927,-79.6003799
390334,AHN WEXFORD HOSPITAL,12351 PERRY HIGHWAY,WEXFORD,PA,15090,ALLEGHENY,(412) 295-3319,Acute Care Hospitals,Voluntary non-profit - Private,Yes,Y,Y,5,,7,Not Available,Not Available,Not Available,Not Available,5,8,5,1,4,0,,11,5,0,5,0,,8,8,,12,8,,,40.6352871,-80.0622847
420082,AIKEN REGIONAL MEDICAL CENTER,302 UNIVERSITY PARKWAY,AIKEN,SC,29801,AIKEN,(803) 641-5900,Acute Care Hospitals,Proprietary,Yes,Y,Y,2,,7,6,0,6,0,,8,7,1,6,0,,11,8,1,7,0,,8,8,,12,11,,,33.5712879,-81.7618537
363303,AKRON CHILDREN'S HOSPITAL,1 PERKINS SQUARE,AKRON,OH,44308,SUMMIT,(330) 543-8290,Childrens,Voluntary non-profit - Private,No,,,Not Available,19,Not Available,Not Available,Not Available,Not Available,Not Available,19,Not Available,Not Available,Not Available,Not Available,Not Available,19,Not Available,Not Available,Not Available,Not Available,Not Available,19,Not Available,Not Available,19,Not Available,Not Available,19,,41.0789912,-81.5266799
360027,AKRON GENERAL MEDICAL CENTER,1 AKRON GENERAL AVENUE,AKRON,OH,44307,SUMMIT,(330) 344-7944,Acute Care Hospitals,Voluntary non-profit - Private,Yes,Y,Y,4,,7,7,1,6,0,,8,7,4,3,0,,11,11,1,8,2,,8,8,,12,12,,,41.0780784,-81.5325511
340070,ALAMANCE REGIONAL MEDICAL CENTER,1240 HUFFMAN MILL RD,BURLINGTON,NC,27216,ALAMANCE,(336) 538-7000,Acute Care Hospitals,Voluntary non-profit - Private,Yes,Y,Y,2,,7,6,0,6,0,,8,7,1,6,0,,11,10,0,9,1,,8,8,,12,10,,,36.0610634,-79.5021993
50211,ALAMEDA HOSPITAL,2070 CLINTON AVENUE,ALAMEDA,CA,94501,ALAMEDA,(510) 522-3700,Acute Care Hospitals,Government - Hospital District or Authority,Yes,Y,,4,,7,4,0,4,0,,8,5,1,4,0,,11,4,0,4,0,,8,8,,12,6,,,37.7626798,-122.2541062
20026,ALASKA NATIVE MEDICAL CENTER,4315 DIPLOMACY DR,ANCHORAGE,AK,99508,ANCHORAGE,(907) 729-3971,Acute Care Hospitals,Government - Federal,Yes,Y,Y,3,,7,6,0,6,0,,8,7,1,5,1,,11,7,0,7,0,,8,8,,12,7,,,61.1829647,-149.7999674
24002,ALASKA PSYCHIATRIC INSTITUTE,3700 PIPER STREET,ANCHORAGE,AK,99508,ANCHORAGE,(907) 269-7100,Psychiatric,Government - State,No,,,Not Available,19,Not Available,Not Available,Not Available,Not Available,Not Available,19,Not Available,Not Available,Not Available,Not Available,Not Available,19,Not Available,Not Available,Not Available,Not Available,Not Available,19,Not Available,Not Available,19,Not Available,Not Available,19,,61.1851296,-149.8293524
20017,ALASKA REGIONAL HOSPITAL,2801 DEBARR ROAD,ANCHORAGE,AK,99508,ANCHORAGE,(907) 276-1131,Acute Care Hospitals,Proprietary,Yes,Y,Y,2,,7,7,0,7,0,,8,7,2,5,0,,11,9,0,6,3,,8,8,,12,8,,,61.2106154,-149.8285245
330013,ALBANY MEDICAL CENTER HOSPITAL,"43 NEW SCOTLAND AVENUE, MAIL CODE 34",ALBANY,NY,12208,ALBANY,(518) 262-2400,Acute Care Hospitals,Voluntary non-profit - Private,Yes,Y,Y,2,,7,7,0,6,1,,8,8,2,6,0,,11,11,1,8,2,,8,8,,12,8,,,42.6541048,-73.7759294
33009F,ALBANY VA MEDICAL CENTER,113 HOLLAND AVENUE,ALBANY,NY,12208,ALBANY,(518) 626-5000,Acute Care - Veterans Administration,Veterans Health Administration,Yes,,,3,,7,4,0,4,0,,8,4,0,4,0,,11,5,0,5,0,,8,8,,12,4,,,42.6496712,-73.7744933
390142,ALBERT EINSTEIN MEDICAL CENTER,5501 OLD YORK ROAD,PHILADELPHIA,PA,19141,PHILADELPHIA,(215) 456-6090,Acute Care Hospitals,Voluntary non-profit - Other,Yes,Y,Y,3,,7,6,0,6,0,,8,8,1,6,1,,11,10,0,10,0,,8,8,,12,11,,,40.0370599,-75.1437059
74015,ALBERT J SOLNIT CHILDREN'S CENTER - SOUTH CAMPUS,915 RIVER ROAD,MIDDLETOWN,CT,6457,MIDDLESEX,(860) 704-4090,Psychiatric,Government - State,No,,,Not Available,19,Not Available,Not Available,Not Available,Not Available,Not Available,19,Not Available,Not Available,Not Available,Not Available,Not Available,19,Not Available,Not Available,Not Available,Not Available,Not Available,19,Not Available,Not Available,19,Not Available,Not Available,19,,41.5584946,-72.6148704
19043F,ALEXANDRIA VA MEDICAL CENTER,2495 SHREVEPORT HIGHWAY 71 N,PINEVILLE,LA,71360,RAPIDES,(318) 473-0010,Acute Care - Veterans Administration,Veterans Health Administration,No,,,Not Available,16,7,1,0,1,0,,8,Not Available,Not Available,Not Available,Not Available,5,11,2,0,2,0,,8,Not Available,5,12,2,,,31.3560641,-92.4376271
144031,ALEXIAN BROTHERS BEHAVIORAL HLTH HOSP,1650 MOON LAKE BLVD,HOFFMAN ESTATES,IL,60169,COOK,(847) 882-1600,Psychiatric,Voluntary non-profit - Church,No,,,Not Available,19,Not Available,Not Available,Not Available,Not Available,Not Available,19,Not Available,Not Available,Not Available,Not Available,Not Available,19,Not Available,Not Available,Not Available,Not Available,Not Available,19,Not Available,Not Available,19,Not Available,Not Available,19,,42.0541025,-88.1372601
140258,ALEXIAN BROTHERS MEDICAL CENTER 1,800 BIESTERFIELD RD,ELK GROVE VILLAGE,IL,60007,COOK,(847) 437-5500,Acute Care Hospitals,Voluntary non-profit - Private,Yes,Y,Y,5,,7,7,1,6,0,,8,8,4,4,0,,11,11,1,9,1,,8,8,,12,10,,,42.0047297,-88.0167691
50281,ALHAMBRA HOSPITAL MEDICAL CENTER,100 S RAYMOND AVE,ALHAMBRA,CA,91801,LOS ANGELES,(626) 570-1606,Acute Care Hospitals,Proprietary,No,Y,,3,,7,3,0,3,0,,8,4,1,3,0,,11,3,0,2,1,,8,8,,12,6,,,34.0906429,-118.1437655
301305,ALICE PECK DAY MEMORIAL HOSPITAL,10 ALICE PECK DAY DRIVE,LEBANON,NH,3766,GRAFTON,(603) 448-3121,Critical Access Hospitals,Voluntary non-profit - Private,Yes,Y,,Not Available,16,7,2,0,2,0,,8,2,0,2,0,,11,6,0,6,0,,8,8,,12,4,,,43.6409576,-72.2638212
341320,ALLEGHANY  MEMORIAL HOSPITAL,233 DOCTORS STREET,SPARTA,NC,28675,ALLEGHANY,(336) 372-5511,Critical Access Hospitals,Voluntary non-profit - Private,Yes,,,Not Available,16,7,1,0,1,0,,8,Not Available,Not Available,Not Available,Not Available,5,11,3,0,3,0,,8,Not Available,5,12,1,,,36.509544,-81.1145222
390050,ALLEGHENY GENERAL HOSPITAL,320 EAST NORTH AVENUE,PITTSBURGH,PA,15212,ALLEGHENY,(412) 359-3131,Acute Care Hospitals,Voluntary non-profit - Private,Yes,Y,,3,,7,7,0,7,0,,8,7,3,4,0,,11,11,1,8,2,,8,8,,12,8,,,40.4569098,-80.003985
390032,ALLEGHENY VALLEY HOSPITAL,1301 CARLISLE ST,NATRONA,PA,15065,ALLEGHENY,(412) 224-5100,Acute Care Hospitals,Voluntary non-profit - Other,Yes,Y,,3,,7,3,0,3,0,,8,3,0,3,0,,11,8,0,8,0,,8,8,,12,10,,,40.6190495,-79.7372162
454101,ALLEGIANCE BEHAVIORAL HEALTH CENTER OF PLAINVIEW,"2601 DIMMITT ROAD, SUITE 400",PLAINVIEW,TX,79072,HALE,(806) 296-9191,Psychiatric,Proprietary,Yes,,,Not Available,19,Not Available,Not Available,Not Available,Not Available,Not Available,19,Not Available,Not Available,Not Available,Not Available,Not Available,19,Not Available,Not Available,Not Available,Not Available,Not Available,19,Not Available,Not Available,19,Not Available,Not Available,19,,34.206576,-101.732656
171373,ALLEN COUNTY REGIONAL HOSPITAL,3066 NORTH KENTUCKY STREET,IOLA,KS,66749,ALLEN,(620) 365-1021,Critical Access Hospitals,Government - State,Yes,Y,,Not Available,16,7,2,0,2,0,,8,Not Available,Not Available,Not Available,Not Available,5,11,3,1,2,0,,8,Not Available,5,12,7,,,37.9486543,-95.3921151
160110,ALLEN HOSPITAL,1825 LOGAN AVENUE,WATERLOO,IA,50703,BLACK HAWK,(319) 235-3941,Acute Care Hospitals,Voluntary non-profit - Private,Yes,Y,Y,4,,7,7,0,6,1,,8,7,1,6,0,,11,11,0,11,0,,8,8,,12,10,,,42.5266507,-92.3395639
190133,ALLEN PARISH HOSPITAL,108 6TH AVENUE,KINDER,LA,70648,ALLEN,(337) 738-2527,Acute Care Hospitals,Government - Hospital District or Authority,Yes,Y,,Not Available,16,7,Not Available,Not Available,Not Available,Not Available,5,8,Not Available,Not Available,Not Available,Not Available,5,11,1,0,1,0,,8,Not Available,5,12,5,,,30.4926172,-92.8560132
421300,ALLENDALE COUNTY HOSPITAL,1787 ALLENDALE FAIRFAX RD,FAIRFAX,SC,29827,ALLENDALE,(803) 632-3311,Critical Access Hospitals,Government - Local,Yes,,,Not Available,16,7,Not Available,Not Available,Not Available,Not Available,5,8,Not Available,Not Available,Not Available,Not Available,5,11,1,0,1,0,,8,Not Available,5,12,Not Available,5,,32.965358,-81.2480569
360131,ALLIANCE COMMUNITY HOSPITAL,200 EAST STATE STREET,ALLIANCE,OH,44601,STARK,(330) 596-7018,Acute Care Hospitals,Voluntary non-profit - Private,Yes,Y,,4,,7,3,0,3,0,,8,2,1,1,0,,11,6,1,5,0,,8,8,,12,10,,,40.902548,-81.1026567
250151,ALLIANCE HEALTH CENTER,5000 HIGHWAY 39 NORTH,MERIDIAN,MS,39301,LAUDERDALE,(601) 483-6211,Acute Care Hospitals,Proprietary,No,,,Not Available,16,7,Not Available,Not Available,Not Available,Not Available,5,8,1,1,0,0,,11,1,0,1,0,,8,Not Available,5,12,2,,,32.4096189,-88.6782171
370014,ALLIANCEHEALTH DURANT,1800 UNIVERSITY BOULEVARD,DURANT,OK,74702,BRYAN,(405) 924-3080,Acute Care Hospitals,Proprietary,Yes,Y,Y,1,,7,6,0,6,0,,8,6,0,6,0,,11,8,0,4,4,,8,8,,12,11,,,34.007302,-96.3938864
371326,ALLIANCEHEALTH MADILL,901 S 5TH AVE,MADILL,OK,73446,MARSHALL,(580) 795-3384,Critical Access Hospitals,Voluntary non-profit - Other,Yes,Y,,Not Available,16,7,1,0,1,0,,8,Not Available,Not Available,Not Available,Not Available,5,11,2,0,2,0,,8,Not Available,5,12,7,,,34.0809909,-96.7777397
370002,ALLIANCEHEALTH WOODWARD,900 17TH STREET,WOODWARD,OK,73801,WOODWARD,(580) 254-8492,Acute Care Hospitals,Proprietary,Yes,Y,Y,2,,7,3,0,3,0,,8,2,0,2,0,,11,7,1,5,1,,8,8,,12,10,,,36.4374176,-99.4003544
240071,ALLINA HEALTH FARIBAULT MEDICAL CENTER,200 STATE AVENUE,FARIBAULT,MN,55021,RICE,(507) 497-3733,Acute Care Hospitals,Voluntary non-profit - Private,Yes,Y,Y,Not Available,16,7,1,0,1,0,,8,2,0,2,0,,11,3,1,2,0,,8,8,,12,8,,,44.2884458,-93.2574729
240038,ALLINA UNITED HOSPITAL,333 NORTH SMITH AVENUE,SAINT PAUL,MN,55102,RAMSEY,(763) 236-8205,Acute Care Hospitals,Voluntary non-profit - Private,Yes,Y,Y,4,,7,6,0,6,0,,8,8,3,5,0,,11,10,1,9,0,,8,8,,12,9,,,44.9430273,-93.1084327
240030,ALOMERE HEALTH,111 17TH AVENUE EAST,ALEXANDRIA,MN,56308,DOUGLAS,(320) 762-1511,Acute Care Hospitals,Government - Local,Yes,Y,Y,4,,7,2,0,2,0,,8,4,0,4,0,,11,8,0,8,0,,8,8,,12,12,,,45.8738481,-95.3763002
50043,ALTA BATES SUMMIT MEDICAL CENTER,350 HAWTHORNE AVENUE,OAKLAND,CA,94609,ALAMEDA,(510) 655-4000,Acute Care Hospitals,Voluntary non-profit - Private,Yes,Y,,4,,7,7,1,6,0,,8,7,2,5,0,,11,11,1,9,1,,8,8,,12,9,,,37.8210188,-122.2636415
50305,ALTA BATES SUMMIT MEDICAL CENTER - ALTA BATES CAMP,2450 ASHBY AVENUE,BERKELEY,CA,94705,ALAMEDA,(510) 204-4444,Acute Care Hospitals,Voluntary non-profit - Private,Yes,Y,Y,4,,7,6,0,6,0,,8,6,2,4,0,,11,9,2,7,0,,8,8,,12,10,,,37.8556279,-122.2575014
460044,ALTA VIEW HOSPITAL,9660 SOUTH 1300 EAST,SANDY,UT,84094,SALT LAKE,(801) 501-2700,Acute Care Hospitals,Voluntary non-profit - Private,Yes,Y,Y,4,,7,2,0,2,0,,8,3,0,3,0,,11,6,1,5,0,,8,8,,12,10,,,40.5759389,-111.8539588
321312,ALTA VISTA REGIONAL HOSPITAL,104 LEGION DRIVE,LAS VEGAS,NM,87701,SAN MIGUEL,(505) 426-3930,Critical Access Hospitals,Proprietary,Yes,,,Not Available,5,Not Available,Not Available,Not Available,Not Available,Not Available,5,Not Available,Not Available,Not Available,Not Available,Not Available,5,Not Available,Not Available,Not Available,Not Available,Not Available,5,Not Available,Not Available,5,Not Available,Not Available,5,,35.6232155,-105.2107963
140002,ALTON MEMORIAL HOSPITAL,ONE MEMORIAL DRIVE,ALTON,IL,62002,MADISON,(618) 463-7311,Acute Care Hospitals,Voluntary non-profit - Private,Yes,Y,Y,4,,7,6,0,6,0,,8,7,1,6,0,,11,9,0,9,0,,8,8,,12,11,,,38.9003799,-90.1603188
144016,ALTON MENTAL HEALTH CENTER,4500 COLLEGE AVENUE,ALTON,IL,62002,MADISON,(618) 474-3800,Psychiatric,Government - State,No,,,Not Available,19,Not Available,Not Available,Not Available,Not Available,Not Available,19,Not Available,Not Available,Not Available,Not Available,Not Available,19,Not Available,Not Available,Not Available,Not Available,Not Available,19,Not Available,Not Available,19,Not Available,Not Available,19,,38.9131666,-90.1139248
350019,ALTRU HOSPITAL,1200 S COLUMBIA RD,GRAND FORKS,ND,58201,GRAND FORKS,(701) 780-5000,Acute Care Hospitals,Government - Local,Yes,Y,Y,3,,7,7,0,7,0,,8,7,2,4,1,,11,11,0,11,0,,8,8,,12,10,,,47.9106165,-97.0686086
670109,ALTUS BAYTOWN HOSPITAL,1626 W BAKER ROAD,BAYTOWN,TX,77521,HARRIS,(281) 837-7600,Acute Care Hospitals,Physician,Yes,,,Not Available,16,7,Not Available,Not Available,Not Available,Not Available,5,8,1,0,1,0,,11,Not Available,Not Available,Not Available,Not Available,5,8,Not Available,5,12,Not Available,5,,29.7718402,-94.9814858
670135,"ALTUS HOUSTON HOSPITAL, LP",6011 W SAM HOUSTON PKWY SOUTH,HOUSTON,TX,77072,HARRIS,(713) 773-0556,Acute Care Hospitals,Proprietary,Yes,,,Not Available,16,7,Not Available,Not Available,Not Available,Not Available,5,8,Not Available,Not Available,Not Available,Not Available,5,11,Not Available,Not Available,Not Available,Not Available,5,8,Not Available,5,12,Not Available,5,,29.7113882,-95.5561906
670134,ALTUS LUMBERTON HOSPITAL,220 BLANCO ST,LUMBERTON,TX,77657,HARDIN,(409) 227-0520,Acute Care Hospitals,Proprietary,Yes,,,Not Available,16,7,Not Available,Not Available,Not Available,Not Available,5,8,Not Available,Not Available,Not Available,Not Available,5,11,1,0,1,0,,8,Not Available,5,12,3,,,30.2616681,-94.2210215
50757,ALVARADO HOSPITAL MEDICAL CENTER,6655 ALVARADO ROAD,SAN DIEGO,CA,92120,SAN DIEGO,(619) 229-3172,Acute Care Hospitals,Proprietary,Yes,Y,,2,,7,5,0,5,0,,8,6,0,5,1,,11,8,0,8,0,,8,8,,12,7,,,32.7766415,-117.0573188
54075,ALVARADO PARKWAY INSTITUTE BEHAVIORAL HEALTH SYSTE,7050 PARKWAY DRIVE,LA MESA,CA,91942,SAN DIEGO,(619) 465-4411,Psychiatric,Voluntary non-profit - Private,No,,,Not Available,19,Not Available,Not Available,Not Available,Not Available,Not Available,19,Not Available,Not Available,Not Available,Not Available,Not Available,19,Not Available,Not Available,Not Available,Not Available,Not Available,19,Not Available,Not Available,19,Not Available,Not Available,19,,32.7746292,-117.0441372
171382,AMBERWELL ATCHISON ASSOCIATION,800 RAVEN HILL DRIVE,ATCHISON,KS,66002,ATCHISON,(913) 367-2131,Critical Access Hospitals,Voluntary non-profit - Private,Yes,Y,Y,Not Available,16,7,2,0,2,0,,8,1,0,1,0,,11,4,1,3,0,,8,8,,12,5,,,39.5362052,-95.1283858
460023,AMERICAN FORK HOSPITAL,170 NORTH 1100 EAST,AMERICAN FORK,UT,84003,UTAH,(801) 855-3300,Acute Care Hospitals,Voluntary non-profit - Private,Yes,Y,Y,4,,7,2,0,2,0,,8,4,0,4,0,,11,5,2,3,0,,8,8,,12,11,,,40.380148,-111.7671487
521308,AMERY HOSPITAL & CLINIC,265 GRIFFIN STREET EAST,AMERY,WI,54001,POLK,(715) 268-0300,Critical Access Hospitals,Voluntary non-profit - Private,Yes,Y,Y,Not Available,16,7,2,0,2,0,,8,1,0,1,0,,11,5,0,5,0,,8,8,,12,7,,,45.2968577,-92.361015
140117,AMITA HEALTH RESURRECTION MEDICAL CENTER,7435 W TALCOTT AVENUE,CHICAGO,IL,60631,COOK,(773) 774-8000,Acute Care Hospitals,Voluntary non-profit - Church,Yes,Y,Y,4,,7,7,1,6,0,,8,7,3,4,0,,11,9,0,9,0,,8,8,,12,10,,,41.9876791,-87.8142891
50854,"ANAHEIM COMMUNITY HOSPITAL, LLC",3350 W BALL ROAD,ANAHEIM,CA,92804,ORANGE,(248) 905-5091,Acute Care Hospitals,Proprietary,No,,,Not Available,16,7,Not Available,Not Available,Not Available,Not Available,5,8,Not Available,Not Available,Not Available,Not Available,5,11,Not Available,Not Available,Not Available,Not Available,5,8,Not Available,5,12,Not Available,5,,33.81559,-118.007042
50744,ANAHEIM GLOBAL MEDICAL CENTER,1025 S ANAHEIM BLVD,ANAHEIM,CA,92805,ORANGE,(714) 533-6220,Acute Care Hospitals,Proprietary,No,,,Not Available,16,7,1,0,1,0,,8,2,0,2,0,,11,2,0,2,0,,8,8,,12,5,,,33.8196827,-117.9097961
314005,ANCORA PSYCH HOSP,ANCORA BRANCH,HAMMONTON,NJ,8037,ATLANTIC,(609) 561-1700,Psychiatric,Government - State,No,,,Not Available,19,Not Available,Not Available,Not Available,Not Available,Not Available,19,Not Available,Not Available,Not Available,Not Available,Not Available,19,Not Available,Not Available,Not Available,Not Available,Not Available,19,Not Available,Not Available,19,Not Available,Not Available,19,,39.6945609,-74.8412742
10036,ANDALUSIA HEALTH,849 SOUTH THREE NOTCH STREET,ANDALUSIA,AL,36420,COVINGTON,(334) 222-8466,Acute Care Hospitals,Proprietary,Yes,Y,Y,3,,7,4,0,4,0,,8,3,0,3,0,,11,7,0,7,0,,8,8,,12,9,,,31.2959678,-86.4944428
171316,ANDERSON COUNTY HOSPITAL,421 S MAPLE,GARNETT,KS,66032,ANDERSON,(785) 448-3131,Critical Access Hospitals,Voluntary non-profit - Private,Yes,Y,,Not Available,16,7,Not Available,Not Available,Not Available,Not Available,5,8,Not Available,Not Available,Not Available,Not Available,5,11,1,0,1,0,,8,Not Available,5,12,5,,,38.2797694,-95.2516222
140289,ANDERSON HOSPITAL,6800 STATE ROUTE 162,MARYVILLE,IL,62062,MADISON,(618) 288-5711,Acute Care Hospitals,Voluntary non-profit - Private,Yes,Y,Y,4,,7,6,0,6,0,,8,8,2,6,0,,11,10,1,8,1,,8,8,,12,10,,,38.7370742,-89.9462931
250104,ANDERSON REGIONAL MEDICAL CENTER,2124 14TH STREET,MERIDIAN,MS,39301,LAUDERDALE,(601) 553-6000,Acute Care Hospitals,Voluntary non-profit - Private,Yes,Y,Y,2,,7,7,0,5,2,,8,7,0,7,0,,11,11,0,10,1,,8,8,,12,10,,,32.3715545,-88.6996095
250081,ANDERSON REGIONAL MEDICAL CENTER SOUTH CAMPUS,1102 CONSTITUTION AVENUE,MERIDIAN,MS,39301,LAUDERDALE,(601) 703-5000,Acute Care Hospitals,Proprietary,Yes,,,Not Available,16,7,Not Available,Not Available,Not Available,Not Available,5,8,1,0,1,0,,11,Not Available,Not Available,Not Available,Not Available,5,8,Not Available,5,12,2,,,32.3675204,-88.6989698
144021,ANDREW MCFARLAND MENTAL HLTH CTR,901 SOUTHWIND RD,SPRINGFIELD,IL,62703,SANGAMON,(217) 786-6900,Psychiatric,Government - State,No,,,Not Available,19,Not Available,Not Available,Not Available,Not Available,Not Available,19,Not Available,Not Available,Not Available,Not Available,Not Available,19,Not Available,Not Available,Not Available,Not Available,Not Available,19,Not Available,Not Available,19,Not Available,Not Available,19,,39.7327377,-89.6408305
301310,ANDROSCOGGIN VALLEY HOSPITAL,59 PAGE HILL ROAD,BERLIN,NH,3570,COOS,(603) 752-2200,Critical Access Hospitals,Voluntary non-profit - Private,Yes,Y,Y,3,,7,3,0,3,0,,8,2,0,2,0,,11,4,1,3,0,,8,Not Available,5,12,7,,,44.4873468,-71.1567649
174025,"ANEW HEALTH, LLC",6815 HILLTOP ROAD,SHAWNEE,KS,66266,JOHNSON,(913) 363-9700,Not Available,Not Available,Yes,,,Not Available,19,Not Available,Not Available,Not Available,Not Available,Not Available,19,Not Available,Not Available,Not Available,Not Available,Not Available,19,Not Available,Not Available,Not Available,Not Available,Not Available,19,Not Available,Not Available,19,Not Available,Not Available,19,,39.0053389,-94.8446972
341326,ANGEL MEDICAL CENTER,124 CENTER COURT PO BOX 1209,FRANKLIN,NC,28734,MACON,(828) 524-8411,Critical Access Hospitals,Voluntary non-profit - Private,Yes,Y,,3,,7,4,0,4,0,,8,1,0,1,0,,11,5,0,5,0,,8,8,,12,9,,,35.1823171,-83.3815429
60117,"ANIMAS SURGICAL HOSPITAL, LLC","575 RIVERGATE LN, UNIT 100",DURANGO,CO,81301,LA PLATA,(970) 247-3537,Acute Care Hospitals,Proprietary,Yes,Y,,Not Available,16,7,Not Available,Not Available,Not Available,Not Available,5,8,2,0,2,0,,11,3,0,3,0,,8,8,,12,5,,,37.2480706,-107.8708827
420027,ANMED HEALTH,800 N FANT ST,ANDERSON,SC,29621,ANDERSON,(864) 512-2830,Acute Care Hospitals,Voluntary non-profit - Private,Yes,,Y,3,,7,7,0,7,0,,8,8,2,6,0,,11,11,0,10,1,,8,8,,12,11,,,34.5119468,-82.6469188
143300,ANN & ROBERT H LURIE CHILDRENS HOSPITAL OF CHICAGO,"225 E CHICAGO AVE, BOX 140",CHICAGO,IL,60611,COOK,(312) 227-4000,Childrens,Voluntary non-profit - Private,Yes,,,Not Available,19,Not Available,Not Available,Not Available,Not Available,Not Available,19,Not Available,Not Available,Not Available,Not Available,Not Available,19,Not Available,Not Available,Not Available,Not Available,Not Available,19,Not Available,Not Available,19,Not Available,Not Available,19,,41.8962222,-87.6218345
141342,ANNA HOSPITAL CORPORATION D/B/A UNION COUNTY HOSPITAL,517 NORTH MAIN STREET,ANNA,IL,62906,UNION,(618) 833-4511,Critical Access Hospitals,Proprietary,Yes,Y,,Not Available,16,7,1,0,1,0,,8,Not Available,Not Available,Not Available,Not Available,5,11,3,0,3,0,,8,Not Available,5,12,6,,,37.4649159,-89.2464879
220029,ANNA JAQUES HOSPITAL,25 HIGHLAND AVENUE,NEWBURYPORT,MA,1950,ESSEX,(978) 463-1000,Acute Care Hospitals,Voluntary non-profit - Private,Yes,,Y,4,,7,5,0,5,0,,8,3,0,3,0,,11,9,0,8,1,,8,8,,12,9,,,42.8144692,-70.8910535
281314,ANNIE JEFFREY MEMORIAL COUNTY HEALTH CENTER,"P O BOX 428, 531 BEEBE ST",OSCEOLA,NE,68651,POLK,(402) 747-2031,Critical Access Hospitals,Government - Local,Yes,,,Not Available,16,7,Not Available,Not Available,Not Available,Not Available,5,8,Not Available,Not Available,Not Available,Not Available,5,11,2,0,2,0,,8,Not Available,5,12,4,,,41.1697272,-97.5490364
244002,ANOKA METRO REGIONAL TREATMENT CENTER,3301 7TH AVE NORTH,ANOKA,MN,55303,ANOKA,(651) 431-5003,Psychiatric,Government - State,No,,,Not Available,19,Not Available,Not Available,Not Available,Not Available,Not Available,19,Not Available,Not Available,Not Available,Not Available,Not Available,19,Not Available,Not Available,Not Available,Not Available,Not Available,19,Not Available,Not Available,19,Not Available,Not Available,19,,45.210086,-93.3779845
281326,ANTELOPE MEMORIAL HOSPITAL,"P O BOX 229, 102 WEST 9TH ST",NELIGH,NE,68756,ANTELOPE,(402) 887-4151,Critical Access Hospitals,Voluntary non-profit - Private,Yes,,,Not Available,16,7,1,0,1,0,,8,Not Available,Not Available,Not Available,Not Available,5,11,2,0,2,0,,8,Not Available,5,12,4,,,42.1342179,-98.0307509
50056,ANTELOPE VALLEY HOSPITAL,1600 W AVE J,LANCASTER,CA,93534,LOS ANGELES,(661) 949-5000,Acute Care Hospitals,Government - Hospital District or Authority,Yes,Y,Y,2,,7,6,0,5,1,,8,8,1,7,0,,11,8,0,8,0,,8,8,,12,8,,,34.688102,-118.1578785
194105,"APOLLO BEHAVIORAL HEALTH HOSPITAL, L L C",9938 AIRLINE HWY,BATON ROUGE,LA,70809,E. BATON ROUGE,(225) 663-2881,Psychiatric,Proprietary,No,,,Not Available,19,Not Available,Not Available,Not Available,Not Available,Not Available,19,Not Available,Not Available,Not Available,Not Available,Not Available,19,Not Available,Not Available,Not Available,Not Available,Not Available,19,Not Available,Not Available,19,Not Available,Not Available,19,,30.4274143,-91.0784908
364015,APPALACHIAN BEHAVIORAL HEALTH CARE,100 HOSPITAL DRIVE,ATHENS,OH,45701,ATHENS,(740) 594-5000,Psychiatric,Proprietary,No,,,Not Available,19,Not Available,Not Available,Not Available,Not Available,Not Available,19,Not Available,Not Available,Not Available,Not Available,Not Available,19,Not Available,Not Available,Not Available,Not Available,Not Available,19,Not Available,Not Available,19,Not Available,Not Available,19,,39.3286344,-82.118733
344034,APPALACHIAN REGIONAL BEHAVIORAL HEALTHCARE,432 HOSPITAL DR,LINVILLE,NC,28646,AVERY,(828) 737-7071,Psychiatric,Voluntary non-profit - Private,No,,,Not Available,19,Not Available,Not Available,Not Available,Not Available,Not Available,19,Not Available,Not Available,Not Available,Not Available,Not Available,19,Not Available,Not Available,Not Available,Not Available,Not Available,19,Not Available,Not Available,19,Not Available,Not Available,19,,36.0615109,-81.887887
241341,APPLETON AREA HEALTH,30 S BEHL ST,APPLETON,MN,56208,SWIFT,(320) 289-1580,Critical Access Hospitals,Government - Local,Yes,Y,,Not Available,16,7,Not Available,Not Available,Not Available,Not Available,5,8,Not Available,Not Available,Not Available,Not Available,5,11,Not Available,Not Available,Not Available,Not Available,5,8,Not Available,5,12,3,,,45.199873,-96.008803
110071,APPLING HEALTHCARE,163 E TOLLISON STREET,BAXLEY,GA,31513,APPLING,(912) 367-9841,Acute Care Hospitals,Government - Hospital District or Authority,Yes,Y,,Not Available,16,7,1,0,1,0,,8,Not Available,Not Available,Not Available,Not Available,5,11,2,0,2,0,,8,Not Available,5,12,5,,,31.7693174,-82.3490036
501319,ARBOR HEALTH MORTON HOSPITAL,521 ADAMS STREET,MORTON,WA,98356,LEWIS,(360) 496-5112,Critical Access Hospitals,Government - Hospital District or Authority,Yes,Y,,Not Available,16,7,Not Available,Not Available,Not Available,Not Available,5,8,Not Available,Not Available,Not Available,Not Available,5,11,1,0,1,0,,8,Not Available,5,12,4,,,46.5554059,-122.2798198
224013,ARBOUR HOSPITAL,49 ROBINWOOD AVENUE,BOSTON,MA,2130,SUFFOLK,(617) 522-4400,Psychiatric,Proprietary,No,,,Not Available,19,Not Available,Not Available,Not Available,Not Available,Not Available,19,Not Available,Not Available,Not Available,Not Available,Not Available,19,Not Available,Not Available,Not Available,Not Available,Not Available,19,Not Available,Not Available,19,Not Available,Not Available,19,,42.3157847,-71.112278
224018,ARBOUR HUMAN RESOURCE INSTITUTE,227 BABCOCK STREET,BROOKLINE,MA,2446,NORFOLK,(617) 731-3200,Psychiatric,Proprietary,No,,,Not Available,19,Not Available,Not Available,Not Available,Not Available,Not Available,19,Not Available,Not Available,Not Available,Not Available,Not Available,19,Not Available,Not Available,Not Available,Not Available,Not Available,19,Not Available,Not Available,19,Not Available,Not Available,19,,42.3507761,-71.1212243
224021,ARBOUR-FULLER HOSPITAL,200 MAY STREET,SOUTH ATTLEBORO,MA,2703,BRISTOL,(508) 761-8500,Psychiatric,Proprietary,No,,,Not Available,19,Not Available,Not Available,Not Available,Not Available,Not Available,19,Not Available,Not Available,Not Available,Not Available,Not Available,19,Not Available,Not Available,Not Available,Not Available,Not Available,19,Not Available,Not Available,19,Not Available,Not Available,19,,41.9244355,-71.3603936
371328,ARBUCKLE MEMORIAL HOSPITAL,2011 WEST BROADWAY,SULPHUR,OK,73086,MURRAY,(580) 622-2161,Critical Access Hospitals,Government - Local,Yes,Y,,Not Available,16,7,2,0,2,0,,8,Not Available,Not Available,Not Available,Not Available,5,11,4,0,3,1,,8,Not Available,5,12,3,,,34.5059733,-96.9941918
111332,ARCHBOLD BROOKS,903 N COURT STREET,QUITMAN,GA,31643,BROOKS,(912) 263-4171,Critical Access Hospitals,Government - Hospital District or Authority,Yes,Y,,Not Available,16,7,Not Available,Not Available,Not Available,Not Available,5,8,Not Available,Not Available,Not Available,Not Available,5,11,Not Available,Not Available,Not Available,Not Available,5,8,Not Available,5,12,3,,,30.7950388,-83.559146
110121,ARCHBOLD GRADY,"1155 5TH STREET, SE",CAIRO,GA,39828,GRADY,(229) 377-0251,Acute Care Hospitals,Voluntary non-profit - Private,Yes,Y,Y,Not Available,16,7,Not Available,Not Available,Not Available,Not Available,5,8,Not Available,Not Available,Not Available,Not Available,5,11,3,0,3,0,,8,8,,12,8,,,30.863877,-84.199166
110038,ARCHBOLD MEMORIAL,915 GORDON AVENUE & MIMOSA DRIVE,THOMASVILLE,GA,31792,THOMAS,(229) 228-2880,Acute Care Hospitals,Voluntary non-profit - Private,Yes,Y,Y,4,,7,6,0,6,0,,8,7,2,5,0,,11,10,0,9,1,,8,8,,12,9,,,30.8253748,-83.9723493
111331,ARCHBOLD MITCHELL,90  E STEPHENS STREET,CAMILLA,GA,31730,MITCHELL,(229) 336-5284,Critical Access Hospitals,Government - Hospital District or Authority,Yes,Y,,Not Available,16,7,Not Available,Not Available,Not Available,Not Available,5,8,Not Available,Not Available,Not Available,Not Available,5,11,Not Available,Not Available,Not Available,Not Available,5,8,Not Available,5,12,4,,,31.2297647,-84.2053168
181305,ARH OUR LADY OF THE WAY,11203 MAIN STREET,MARTIN,KY,41649,FLOYD,(606) 285-6400,Critical Access Hospitals,Voluntary non-profit - Private,Yes,Y,,Not Available,16,7,Not Available,Not Available,Not Available,Not Available,5,8,Not Available,Not Available,Not Available,Not Available,5,11,2,0,1,1,,8,Not Available,5,12,7,,,37.5789168,-82.7508314
450871,ARISE AUSTIN MEDICAL CENTER,3003 BEE CAVES ROAD,AUSTIN,TX,78746,TRAVIS,(512) 347-9888,Acute Care Hospitals,Physician,No,,,Not Available,16,7,Not Available,Not Available,Not Available,Not Available,5,8,2,0,2,0,,11,3,0,2,1,,8,Not Available,5,12,2,,,30.2708738,-97.7959092
30112,ARIZONA ORTHOPEDIC AND SURGICAL SPECIALTY HOSPITAL,"2905 WEST WARNER ROAD, SUITE 1",CHANDLER,AZ,85224,MARICOPA,(480) 603-9000,Acute Care Hospitals,Proprietary,No,Y,,Not Available,16,7,Not Available,Not Available,Not Available,Not Available,5,8,2,0,2,0,,11,3,0,1,2,,8,8,,12,2,,,33.3338377,-111.8912633
30107,ARIZONA SPINE AND JOINT HOSPITAL,4620 EAST BASELINE ROAD,MESA,AZ,85206,MARICOPA,(480) 832-4770,Acute Care Hospitals,Physician,No,Y,,Not Available,16,7,Not Available,Not Available,Not Available,Not Available,5,8,2,0,2,0,,11,3,1,1,1,,8,8,,12,2,,,33.3802967,-111.7346187
34021,ARIZONA STATE HOSPITAL,2500 EAST VAN BUREN STREET,PHOENIX,AZ,85007,MARICOPA,(602) 220-6000,Psychiatric,Government - State,No,,,Not Available,19,Not Available,Not Available,Not Available,Not Available,Not Available,19,Not Available,Not Available,Not Available,Not Available,Not Available,19,Not Available,Not Available,Not Available,Not Available,Not Available,19,Not Available,Not Available,19,Not Available,Not Available,19,,33.4515345,-112.0259885
43300,ARKANSAS CHILDREN'S HOSPITAL,"1 CHILDREN'S WAY, SLOT 301",LITTLE ROCK,AR,72202,PULASKI,(501) 364-1100,Childrens,Voluntary non-profit - Private,Yes,,,Not Available,19,Not Available,Not Available,Not Available,Not Available,Not Available,19,Not Available,Not Available,Not Available,Not Available,Not Available,19,Not Available,Not Available,Not Available,Not Available,Not Available,19,Not Available,Not Available,19,Not Available,Not Available,19,,34.7430824,-92.2922503
43301,"ARKANSAS CHILDREN'S NORTHWEST, INC",2601 GENE GEORGE BOULEVARD,SPRINGDALE,AR,72762,WASHINGTON,(479) 725-6800,Childrens,Voluntary non-profit - Private,Yes,,,Not Available,19,Not Available,Not Available,Not Available,Not Available,Not Available,19,Not Available,Not Available,Not Available,Not Available,Not Available,19,Not Available,Not Available,Not Available,Not Available,Not Available,19,Not Available,Not Available,19,Not Available,Not Available,19,,36.1620003,-94.189667
40134,"ARKANSAS HEART HOSPITAL, LLC",1701 S SHACKLEFORD ROAD,LITTLE ROCK,AR,72211,PULASKI,(501) 219-7000,Acute Care Hospitals,Proprietary,Yes,Y,,3,,7,7,0,7,0,,8,5,1,4,0,,11,8,0,5,3,,8,8,,12,7,,,34.7386221,-92.393486
40161,ARKANSAS HEART HOSPITAL-ENCORE,1901 ENCORE WAY,BRYANT,AR,72022,SALINE,(501) 213-4500,Acute Care Hospitals,Proprietary,Yes,Y,,4,,7,3,0,3,0,,8,2,1,1,0,,11,6,0,6,0,,8,8,,12,9,,,34.6130032,-92.5207603
40039,ARKANSAS METHODIST MEDICAL CENTER,900 WEST KINGSHIGHWAY,PARAGOULD,AR,72450,GREENE,(870) 239-7000,Acute Care Hospitals,Voluntary non-profit - Private,Yes,Y,Y,2,,7,5,0,5,0,,8,3,0,3,0,,11,8,0,7,1,,8,8,,12,8,,,36.0516946,-90.4985428
44011,ARKANSAS STATE HOSPITAL,305 S PALM STREET,LITTLE ROCK,AR,72205,PULASKI,(501) 686-9000,Psychiatric,Government - State,No,,,Not Available,19,Not Available,Not Available,Not Available,Not Available,Not Available,19,Not Available,Not Available,Not Available,Not Available,Not Available,19,Not Available,Not Available,Not Available,Not Available,Not Available,19,Not Available,Not Available,19,Not Available,Not Available,19,,34.7497432,-92.3244733
40147,ARKANSAS SURGICAL HOSPITAL,5201 NORTH SHORE DRIVE,NO LITTLE ROCK,AR,72118,PULASKI,(501) 748-8000,Acute Care Hospitals,Physician,Yes,Y,,Not Available,16,7,Not Available,Not Available,Not Available,Not Available,5,8,2,0,2,0,,11,3,1,1,1,,8,8,,12,4,,,34.80014,-92.3486711
61336,ARKANSAS VALLEY REGIONAL MEDICAL CENTER,1100 CARSON AVE,LA JUNTA,CO,81050,OTERO,(719) 363-1428,Critical Access Hospitals,Voluntary non-profit - Private,Yes,,,Not Available,16,7,Not Available,Not Available,Not Available,Not Available,5,8,Not Available,Not Available,Not Available,Not Available,5,11,1,0,1,0,,8,Not Available,5,12,2,,,37.9779708,-103.5495661
330090,ARNOT OGDEN MEDICAL CENTER,600 ROE AVENUE,ELMIRA,NY,14905,CHEMUNG,(607) 737-4100,Acute Care Hospitals,Voluntary non-profit - Private,Yes,,Y,1,,7,6,0,6,0,,8,6,1,4,1,,11,10,0,9,1,,8,8,,12,10,,,42.0989197,-76.8306703
364036,ARROWHEAD BEHAVIORAL HEALTH,1725 TIMBER LINE ROAD,MAUMEE,OH,43537,LUCAS,(419) 891-9333,Psychiatric,Proprietary,No,,,Not Available,19,Not Available,Not Available,Not Available,Not Available,Not Available,19,Not Available,Not Available,Not Available,Not Available,Not Available,19,Not Available,Not Available,Not Available,Not Available,Not Available,19,Not Available,Not Available,19,Not Available,Not Available,19,,41.5895618,-83.6895501
50245,ARROWHEAD REGIONAL MEDICAL CENTER,400 NORTH PEPPER AVENUE,COLTON,CA,92324,SAN BERNARDINO,(909) 580-1000,Acute Care Hospitals,Government - Local,Yes,Y,Y,1,,7,4,0,4,0,,8,7,3,4,0,,11,6,1,4,1,,8,8,,12,8,,,34.074234,-117.3502815
320030,ARTESIA GENERAL HOSPITAL,702 N 13TH STREET,ARTESIA,NM,88210,EDDY,(575) 748-3333,Acute Care Hospitals,Voluntary non-profit - Other,Yes,Y,,Not Available,16,7,1,0,1,0,,8,2,0,2,0,,11,5,1,4,0,,8,Not Available,5,12,8,,,32.8490438,-104.4109282
380005,ASANTE ASHLAND COMMUNITY HOSPITAL,280 MAPLE STREET,ASHLAND,OR,97520,JACKSON,(541) 201-4000,Acute Care Hospitals,Government - Local,Yes,Y,Y,Not Available,16,7,Not Available,Not Available,Not Available,Not Available,5,8,2,0,2,0,,11,3,0,3,0,,8,8,,12,8,,,42.206032,-122.7250341
380018,ASANTE ROGUE REGIONAL MEDICAL CENTER,2825 E BARNETT ROAD,MEDFORD,OR,97504,JACKSON,(541) 789-7000,Acute Care Hospitals,Voluntary non-profit - Private,Yes,Y,Y,5,,7,7,1,6,0,,8,7,2,4,1,,11,11,1,10,0,,8,8,,12,11,,,42.3173943,-122.8304558
380002,ASANTE THREE RIVERS MEDICAL CENTER,500 SW RAMSEY AVENUE,GRANTS PASS,OR,97527,JOSEPHINE,(541) 472-7000,Acute Care Hospitals,Voluntary non-profit - Other,Yes,Y,Y,5,,7,5,0,5,0,,8,7,1,6,0,,11,9,0,9,0,,8,8,,12,12,,,42.4213563,-123.3429915
670056,ASCENSION  SETON HAYS,6001 KYLE PKWY,KYLE,TX,78640,HAYS,(512) 324-5000,Acute Care Hospitals,Voluntary non-profit - Private,Yes,Y,Y,5,,7,7,0,7,0,,8,6,1,5,0,,11,8,0,8,0,,8,8,,12,10,,,30.0085142,-97.8530029
520096,ASCENSION ALL SAINTS HOSPITAL,3801 SPRING ST,RACINE,WI,53405,RACINE,(262) 687-4011,Acute Care Hospitals,Voluntary non-profit - Church,Yes,Y,Y,3,,7,6,0,6,0,,8,7,1,6,0,,11,10,0,10,0,,8,8,,12,10,,,42.7317579,-87.8264766
231328,ASCENSION BORGESS ALLEGAN HOSPITAL,555 LINN STREET,ALLEGAN,MI,49010,ALLEGAN,(269) 686-4101,Critical Access Hospitals,Voluntary non-profit - Private,Yes,,,Not Available,16,7,Not Available,Not Available,Not Available,Not Available,5,8,Not Available,Not Available,Not Available,Not Available,5,11,2,0,2,0,,8,8,,12,4,,,42.5195749,-85.8563903
231315,ASCENSION BORGESS LEE HOSPITAL,420 W HIGH ST,DOWAGIAC,MI,49047,CASS,(269) 782-8681,Critical Access Hospitals,Voluntary non-profit - Church,Yes,Y,,Not Available,16,7,Not Available,Not Available,Not Available,Not Available,5,8,Not Available,Not Available,Not Available,Not Available,5,11,1,0,1,0,,8,Not Available,5,12,4,,,41.9833372,-86.115298
230279,ASCENSION BRIGHTON CENTER FOR RECOVERY,12851 GRAND RIVER RD,BRIGHTON,MI,48116,LIVINGSTON,(810) 227-1211,Acute Care Hospitals,Voluntary non-profit - Private,No,,,Not Available,16,7,Not Available,Not Available,Not Available,Not Available,5,8,1,0,1,0,,11,1,0,1,0,,8,Not Available,5,12,2,,,42.5195845,-83.6962483
521317,ASCENSION CALUMET HOSPITAL,614 MEMORIAL DRIVE,CHILTON,WI,53014,CALUMET,(920) 849-2386,Critical Access Hospitals,Voluntary non-profit - Private,Yes,Y,,Not Available,16,7,Not Available,Not Available,Not Available,Not Available,5,8,Not Available,Not Available,Not Available,Not Available,5,11,1,0,1,0,,8,Not Available,5,12,6,,,44.0248984,-88.1542036
520051,ASCENSION COLUMBIA ST MARY'S HOSPITAL MILWAUKEE,2323 N LAKE DR,MILWAUKEE,WI,53211,MILWAUKEE,(414) 585-1374,Acute Care Hospitals,Voluntary non-profit - Church,Yes,Y,Y,3,,7,7,0,7,0,,8,7,1,6,0,,11,10,0,8,2,,8,8,,12,10,,,43.0617525,-87.8798289
230197,ASCENSION GENESYS HOSPITAL,ONE GENESYS PARKWAY,GRAND BLANC,MI,48439,GENESEE,(810) 606-5000,Acute Care Hospitals,Voluntary non-profit - Church,Yes,,Y,3,,7,7,0,7,0,,8,8,2,6,0,,11,9,0,7,2,,8,8,,12,11,,,42.8924612,-83.6361435
230195,ASCENSION MACOMB OAKLAND HOSP-WARREN CAMPUS,11800 EAST TWELVE MILE ROAD,WARREN,MI,48093,MACOMB,(586) 573-5000,Acute Care Hospitals,Voluntary non-profit - Private,Yes,Y,Y,2,,7,6,1,5,0,,8,7,1,6,0,,11,8,0,5,3,,8,8,,12,11,,,42.504986,-83.0956827
520009,ASCENSION NE WISCONSIN - ST ELIZABETH CAMPUS,1506 S ONEIDA ST,APPLETON,WI,54915,OUTAGAMIE,(920) 738-2000,Acute Care Hospitals,Voluntary non-profit - Private,Yes,Y,Y,4,,7,6,0,6,0,,8,8,1,7,0,,11,11,1,10,0,,8,8,,12,9,,,44.2485076,-88.4027388
450042,ASCENSION PROVIDENCE,6901 MEDICAL PARKWAY,WACO,TX,76712,MC LENNAN,(254) 751-4000,Acute Care Hospitals,Voluntary non-profit - Private,Yes,Y,Y,2,,7,7,0,6,1,,8,7,2,5,0,,11,9,0,8,1,,8,8,,12,9,,,31.5142475,-97.1989903
230019,"ASCENSION PROVIDENCE HOSPITAL, SOUTHFIELD AND NOVI",16001 W NINE MILE RD,SOUTHFIELD,MI,48075,OAKLAND,(248) 849-3011,Acute Care Hospitals,Voluntary non-profit - Church,Yes,Y,Y,3,,7,7,1,6,0,,8,8,3,4,1,,11,9,0,7,2,,8,8,,12,10,,,42.4583818,-83.2054881
230254,ASCENSION PROVIDENCE ROCHESTER HOSPITAL,1101 W UNIVERSITY DRIVE,ROCHESTER,MI,48307,OAKLAND,(248) 652-5000,Acute Care Hospitals,Voluntary non-profit - Private,Yes,Y,Y,3,,7,7,0,7,0,,8,8,0,8,0,,11,9,0,8,1,,8,8,,12,9,,,42.6796888,-83.1493212
230241,ASCENSION RIVER DISTRICT HOSPITAL,4100 RIVER RD,EAST CHINA,MI,48054,ST. CLAIR,(810) 329-7111,Acute Care Hospitals,Government - Hospital District or Authority,Yes,Y,,4,,7,3,0,3,0,,8,1,0,1,0,,11,6,0,6,0,,8,8,,12,9,,,42.7859607,-82.4799344
100026,ASCENSION SACRED HEART BAY,615 N BONITA AVE,PANAMA CITY,FL,32401,BAY,(850) 769-1511,Acute Care Hospitals,Voluntary non-profit - Private,Yes,Y,,3,,7,7,0,7,0,,8,6,1,5,0,,11,9,1,8,0,,8,8,,12,7,,,30.158923,-85.6481004
100313,ASCENSION SACRED HEART GULF,3801 E HWY 98,PORT SAINT JOE,FL,32456,GULF,(850) 229-5600,Acute Care Hospitals,Voluntary non-profit - Private,Yes,Y,,Not Available,16,7,1,0,1,0,,8,1,0,1,0,,11,4,2,2,0,,8,Not Available,5,12,6,,,30.1441703,-85.6156436
444030,ASCENSION SAINT THOMAS BEHAVIORAL HEALTH HOSPITAL,300 GREAT CIRCLE ROAD,NASHVILLE,TN,37228,DAVIDSON,(615) 813-1880,Psychiatric,Proprietary,No,,,Not Available,19,Not Available,Not Available,Not Available,Not Available,Not Available,19,Not Available,Not Available,Not Available,Not Available,Not Available,19,Not Available,Not Available,Not Available,Not Available,Not Available,19,Not Available,Not Available,19,Not Available,Not Available,19,,36.1973545,-86.7939113
440082,ASCENSION SAINT THOMAS HOSPITAL,"4220 HARDING RD, PO BOX 380",NASHVILLE,TN,37205,DAVIDSON,(615) 222-2111,Acute Care Hospitals,Voluntary non-profit - Private,Yes,Y,Y,3,,7,7,0,7,0,,8,8,2,6,0,,11,11,1,9,1,,8,8,,12,10,,,36.1292533,-86.8444636
441303,ASCENSION SAINT THOMAS THREE RIVERS,451 HIGHWAY 13 SOUTH,WAVERLY,TN,37185,HUMPHREYS,(931) 296-4203,Critical Access Hospitals,Voluntary non-profit - Private,Yes,,,Not Available,16,7,1,0,1,0,,8,Not Available,Not Available,Not Available,Not Available,5,11,2,0,2,0,,8,Not Available,5,12,5,,,36.0762301,-87.7926259
520136,ASCENSION SE WISCONSIN HOSPITAL,5000 W CHAMBERS ST,MILWAUKEE,WI,53210,MILWAUKEE,(414) 447-2130,Acute Care Hospitals,Voluntary non-profit - Church,Yes,Y,Y,4,,7,6,0,6,0,,8,7,1,6,0,,11,10,1,8,1,,8,8,,12,11,,,43.0743635,-87.9765372
450865,ASCENSION SETON  SOUTHWEST,7900 FM 1826,AUSTIN,TX,78737,HAYS,(512) 324-9000,Acute Care Hospitals,Voluntary non-profit - Private,Yes,Y,,Not Available,16,7,Not Available,Not Available,Not Available,Not Available,5,8,1,0,1,0,,11,4,0,4,0,,8,8,,12,7,,,30.226514,-97.892365
670143,ASCENSION SETON BASTROP,"630 HIGWAY 71 W,",BASTROP,TX,78602,BASTROP,(737) 881-7400,Acute Care Hospitals,Voluntary non-profit - Private,Yes,Y,,Not Available,16,7,Not Available,Not Available,Not Available,Not Available,5,8,Not Available,Not Available,Not Available,Not Available,5,11,1,0,1,0,,8,Not Available,5,12,6,,,30.1085786,-97.3447787
451371,ASCENSION SETON EDGAR B DAVIS,130 HAYS STREET,LULING,TX,78648,CALDWELL,(830) 875-7000,Critical Access Hospitals,Voluntary non-profit - Private,Yes,Y,,Not Available,16,7,1,0,1,0,,8,Not Available,Not Available,Not Available,Not Available,5,11,2,0,2,0,,8,8,,12,5,,,29.6728873,-97.6556163
451365,ASCENSION SETON HIGHLAND LAKES,3201 S WATER ST,BURNET,TX,78611,BURNET,(512) 715-3000,Critical Access Hospitals,Voluntary non-profit - Private,Yes,Y,,Not Available,16,7,1,0,1,0,,8,1,0,1,0,,11,5,0,5,0,,8,Not Available,5,12,6,,,30.7331258,-98.2368791
450056,ASCENSION SETON MEDICAL CENTER AUSTIN,1201 W 38TH ST,AUSTIN,TX,78705,TRAVIS,(512) 324-1000,Acute Care Hospitals,Voluntary non-profit - Private,Yes,Y,Y,4,,7,7,1,6,0,,8,8,3,5,0,,11,11,0,10,1,,8,8,,12,9,,,30.305555,-97.74532
450867,ASCENSION SETON NORTHWEST,11113 RESEARCH BOULEVARD,AUSTIN,TX,78759,TRAVIS,(512) 324-6000,Acute Care Hospitals,Voluntary non-profit - Private,Yes,Y,Y,5,,7,3,0,3,0,,8,6,1,5,0,,11,7,0,7,0,,8,8,,12,8,,,30.4053348,-97.7443015
454029,ASCENSION SETON SHOAL CREEK,3501 MILLS AVE,AUSTIN,TX,78731,TRAVIS,(512) 324-2000,Psychiatric,Voluntary non-profit - Private,No,,,Not Available,19,Not Available,Not Available,Not Available,Not Available,Not Available,19,Not Available,Not Available,Not Available,Not Available,Not Available,19,Not Available,Not Available,Not Available,Not Available,Not Available,19,Not Available,Not Available,19,Not Available,Not Available,19,,30.3060903,-97.7483758
670041,ASCENSION SETON WILLIAMSON,201 SETON PARKWAY,ROUND ROCK,TX,78664,WILLIAMSON,(512) 324-0000,Acute Care Hospitals,Voluntary non-profit - Private,Yes,Y,Y,5,,7,7,0,7,0,,8,6,1,5,0,,11,8,1,7,0,,8,8,,12,8,,,30.5650098,-97.6514786
520078,ASCENSION ST FRANCIS HOSPITAL,3237 S 16TH ST,MILWAUKEE,WI,53215,MILWAUKEE,(414) 647-5000,Acute Care Hospitals,Voluntary non-profit - Private,Yes,Y,Y,4,,7,3,0,3,0,,8,4,0,4,0,,11,8,0,7,1,,8,8,,12,8,,,42.9863156,-87.9343472
370235,ASCENSION ST JOHN BROKEN ARROW,1000 WEST BOISE CIRCLE,BROKEN ARROW,OK,74012,TULSA,(918) 994-8100,Acute Care Hospitals,Voluntary non-profit - Private,Yes,Y,,5,,7,2,0,2,0,,8,3,0,3,0,,11,6,1,5,0,,8,8,,12,8,,,36.0783013,-95.8008607
230165,ASCENSION ST JOHN HOSPITAL,22101 MOROSS RD,DETROIT,MI,48236,WAYNE,(313) 343-4000,Acute Care Hospitals,Voluntary non-profit - Church,Yes,Y,Y,2,,7,7,0,7,0,,8,8,2,6,0,,11,11,0,9,2,,8,8,,12,10,,,42.4201321,-82.9141176
370018,ASCENSION ST JOHN JANE PHILLIPS,3500 EAST FRANK PHILLIPS BOULEVARD,BARTLESVILLE,OK,74006,WASHINGTON,(918) 333-7200,Acute Care Hospitals,Voluntary non-profit - Private,Yes,Y,Y,4,,7,6,0,6,0,,8,6,1,5,0,,11,8,2,6,0,,8,8,,12,11,,,36.7525241,-95.9385462
370114,ASCENSION ST JOHN MEDICAL CENTER,1923 SOUTH UTICA AVENUE,TULSA,OK,74104,TULSA,(918) 744-3131,Acute Care Hospitals,Voluntary non-profit - Private,Yes,Y,Y,2,,7,7,0,6,1,,8,7,1,4,2,,11,10,0,10,0,,8,8,,12,10,,,36.1341001,-95.9668984
371305,ASCENSION ST JOHN NOWATA,237 SOUTH LOCUST STREET,NOWATA,OK,74048,NOWATA,(918) 273-3102,Critical Access Hospitals,Voluntary non-profit - Private,Yes,Y,,Not Available,16,7,Not Available,Not Available,Not Available,Not Available,5,8,Not Available,Not Available,Not Available,Not Available,5,11,1,0,1,0,,8,Not Available,5,12,2,,,36.6964456,-95.6301645
371312,ASCENSION ST JOHN SAPULPA,1004 EAST BRYAN,SAPULPA,OK,74066,CREEK,(918) 224-4280,Critical Access Hospitals,Voluntary non-profit - Private,Yes,Y,,Not Available,16,7,Not Available,Not Available,Not Available,Not Available,5,8,Not Available,Not Available,Not Available,Not Available,5,11,1,0,1,0,,8,Not Available,5,12,7,,,35.9930022,-96.1001117
230077,ASCENSION ST MARY'S HOSPITAL,800 S WASHINGTON AVENUE,SAGINAW,MI,48601,SAGINAW,(989) 776-8000,Acute Care Hospitals,Voluntary non-profit - Church,Yes,,,2,,7,7,0,7,0,,8,7,1,5,1,,11,11,0,9,2,,8,8,,12,9,,,43.4260334,-83.9417134
150088,ASCENSION ST VINCENT ANDERSON,2015 JACKSON ST,ANDERSON,IN,46016,MADISON,(765) 646-8238,Acute Care Hospitals,Voluntary non-profit - Private,Yes,,Y,3,,7,4,0,4,0,,8,6,0,6,0,,11,9,0,9,0,,8,8,,12,10,,,40.0955305,-85.6812084
150157,ASCENSION ST VINCENT CARMEL,13500 N MERIDIAN ST,CARMEL,IN,46032,HAMILTON,(317) 582-7901,Acute Care Hospitals,Voluntary non-profit - Private,Yes,,Y,4,,7,4,0,4,0,,8,5,0,5,0,,11,6,0,6,0,,8,8,,12,8,,,39.9823454,-86.1435507
151309,ASCENSION ST VINCENT CLAY,1206 E NATIONAL AVE,BRAZIL,IN,47834,CLAY,(812) 442-2500,Critical Access Hospitals,Voluntary non-profit - Private,Yes,,,Not Available,16,7,Not Available,Not Available,Not Available,Not Available,5,8,Not Available,Not Available,Not Available,Not Available,5,11,2,0,2,0,,8,Not Available,5,12,5,,,39.5293481,-87.1116937
150100,ASCENSION ST VINCENT EVANSVILLE,3700 WASHINGTON AVE,EVANSVILLE,IN,47750,VANDERBURGH,(812) 485-4000,Acute Care Hospitals,Voluntary non-profit - Private,Yes,,Y,4,,7,7,0,7,0,,8,7,2,5,0,,11,11,0,11,0,,8,8,,12,10,,,37.9644071,-87.5041081
150181,ASCENSION ST VINCENT FISHERS,13861 OLIO ROAD,FISHERS,IN,46037,HAMILTON,(317) 415-9000,Acute Care Hospitals,Voluntary non-profit - Private,Yes,,Y,Not Available,16,7,2,0,2,0,,8,2,0,2,0,,11,6,0,6,0,,8,8,,12,8,,,39.9894966,-85.9161569
150084,ASCENSION ST VINCENT HOSPITAL,2001 W 86TH ST,INDIANAPOLIS,IN,46260,MARION,(317) 338-7000,Acute Care Hospitals,Voluntary non-profit - Church,Yes,,Y,4,,7,7,0,7,0,,8,8,3,5,0,,11,11,0,10,1,,8,8,,12,9,,,39.9090803,-86.1958346
151303,ASCENSION ST VINCENT JENNINGS,301 HENRY ST,NORTH VERNON,IN,47265,JENNINGS,(812) 352-4228,Critical Access Hospitals,Voluntary non-profit - Church,Yes,,,Not Available,16,7,Not Available,Not Available,Not Available,Not Available,5,8,Not Available,Not Available,Not Available,Not Available,5,11,2,0,2,0,,8,Not Available,5,12,5,,,39.0102017,-85.6409288
150010,ASCENSION ST VINCENT KOKOMO,1907 W SYCAMORE ST,KOKOMO,IN,46904,HOWARD,(765) 452-5611,Acute Care Hospitals,Voluntary non-profit - Church,Yes,,Y,4,,7,5,0,5,0,,8,5,0,5,0,,11,9,1,8,0,,8,8,,12,9,,,40.4863584,-86.1568939
151308,ASCENSION ST VINCENT MERCY,1331 S A ST,ELWOOD,IN,46036,MADISON,(765) 552-4743,Critical Access Hospitals,Voluntary non-profit - Church,Yes,,,Not Available,16,7,Not Available,Not Available,Not Available,Not Available,5,8,Not Available,Not Available,Not Available,Not Available,5,11,2,0,2,0,,8,Not Available,5,12,6,,,40.2755784,-85.8438248
151301,ASCENSION ST VINCENT RANDOLPH,473 E GREENVILLE AVE,WINCHESTER,IN,47394,RANDOLPH,(765) 584-0004,Critical Access Hospitals,Voluntary non-profit - Private,Yes,,Y,Not Available,16,7,Not Available,Not Available,Not Available,Not Available,5,8,Not Available,Not Available,Not Available,Not Available,5,11,2,0,2,0,,8,Not Available,5,12,6,,,40.1688929,-84.9690581
151314,ASCENSION ST VINCENT SALEM,911 N SHELBY ST,SALEM,IN,47167,WASHINGTON,(812) 883-5881,Critical Access Hospitals,Voluntary non-profit - Private,Yes,,,Not Available,16,7,Not Available,Not Available,Not Available,Not Available,5,8,Not Available,Not Available,Not Available,Not Available,5,11,2,0,2,0,,8,Not Available,5,12,5,,,38.6133177,-86.1071708
151325,ASCENSION ST VINCENT WARRICK,1116 MILLIS AVE,BOONVILLE,IN,47601,WARRICK,(812) 897-4800,Critical Access Hospitals,Voluntary non-profit - Private,Yes,,,Not Available,16,7,Not Available,Not Available,Not Available,Not Available,5,8,1,0,0,1,,11,1,0,1,0,,8,Not Available,5,12,5,,,38.0418913,-87.2628092
151307,ASCENSION ST VINCENT WILLIAMSPORT,412 N MONROE ST,WILLIAMSPORT,IN,47993,WARREN,(765) 762-4001,Critical Access Hospitals,Voluntary non-profit - Church,Yes,,,Not Available,16,7,2,0,2,0,,8,Not Available,Not Available,Not Available,Not Available,5,11,5,0,5,0,,8,Not Available,5,12,5,,,40.2904605,-87.2966248
100321,ASCENSION ST VINCENT'S CLAY COUNTY,1670 ST VINCENTS WAY,MIDDLEBURG,FL,32068,CLAY,(904) 602-1000,Acute Care Hospitals,Voluntary non-profit - Private,Yes,Y,Y,3,,7,5,0,5,0,,8,7,1,6,0,,11,8,0,8,0,,8,8,,12,10,,,30.1090045,-81.8321104
100040,ASCENSION ST VINCENT'S RIVERSIDE,1 SHIRCLIFF WAY,JACKSONVILLE,FL,32204,DUVAL,(904) 308-7300,Acute Care Hospitals,Voluntary non-profit - Private,Yes,Y,Y,2,,7,7,0,7,0,,8,7,2,5,0,,11,9,1,5,3,,8,8,,12,10,,,30.3076759,-81.6904716
100307,ASCENSION ST VINCENT'S SOUTHSIDE,4201 BELFORT RD,JACKSONVILLE,FL,32216,DUVAL,(904) 296-3700,Acute Care Hospitals,Voluntary non-profit - Private,Yes,Y,Y,4,,7,6,0,6,0,,8,7,1,6,0,,11,10,0,10,0,,8,8,,12,9,,,30.25396,-81.5823487
100361,ASCENSION ST VINCENT'S ST JOHNS COUNTY,205 TRINITY WAY,ST JOHNS,FL,32259,ST. JOHNS,(904) 691-1000,Acute Care Hospitals,Voluntary non-profit - Private,Yes,,,Not Available,16,7,Not Available,Not Available,Not Available,Not Available,5,8,1,0,1,0,,11,Not Available,Not Available,Not Available,Not Available,5,8,Not Available,5,12,5,,,30.070277,-81.496382
170142,"ASCENSION VIA CHRISTI HOSPITAL MANHATTAN, INC",1823 COLLEGE AVE,MANHATTAN,KS,66502,RILEY,(785) 776-2831,Acute Care Hospitals,Voluntary non-profit - Private,Yes,Y,Y,4,,7,5,0,5,0,,8,6,0,6,0,,11,8,1,7,0,,8,8,,12,9,,,39.2012623,-96.5991568
170122,"ASCENSION VIA CHRISTI HOSPITALS WICHITA, INC.",929 NORTH ST FRANCIS STREET,WICHITA,KS,67214,SEDGWICK,(316) 268-5000,Acute Care Hospitals,Voluntary non-profit - Private,Yes,Y,Y,3,,7,7,0,6,1,,8,7,2,5,0,,11,11,0,10,1,,8,8,,12,9,,,37.6996534,-97.3309413
520214,ASCENSION WISCONSIN HOSP MENOMONEE FALLS CAMPUS,"N88W14275 MAIN STREET, SUITE 100",MENOMONEE FALLS,WI,53051,WAUKESHA,(262) 415-2001,Acute Care Hospitals,Proprietary,Yes,,,Not Available,16,7,Not Available,Not Available,Not Available,Not Available,5,8,Not Available,Not Available,Not Available,Not Available,5,11,Not Available,Not Available,Not Available,Not Available,5,8,8,,12,5,,,43.1777266,-88.0876974
400127,ASEM,EDIFICIO CENTRAL JULIO A PEREZ MEDICAL CENTER,SAN JUAN,PR,935,SAN JUAN,(787) 777-3535,Acute Care Hospitals,Government - State,Yes,,,Not Available,16,7,Not Available,Not Available,Not Available,Not Available,5,8,2,0,1,1,,11,Not Available,Not Available,Not Available,Not Available,5,8,Not Available,5,12,2,,,18.39152,-66.07489
341325,ASHE MEMORIAL HOSPITAL,200 HOSPITAL AVE,JEFFERSON,NC,28640,ASHE,(336) 246-7101,Critical Access Hospitals,Voluntary non-profit - Private,Yes,,,3,,7,3,0,3,0,,8,Not Available,Not Available,Not Available,Not Available,5,11,8,0,8,0,,8,8,,12,3,,,36.4233112,-81.4578526
34036F,ASHEVILLE-OTEEN VA MEDICAL CENTER,1100 TUNNEL ROAD,ASHEVILLE,NC,28805,BUNCOMBE,(828) 298-7911,Acute Care - Veterans Administration,Veterans Health Administration,Yes,,,5,,7,4,1,3,0,,8,3,0,3,0,,11,6,1,5,0,,8,8,,12,5,,,35.5883602,-82.4841451
171304,ASHLAND HEALTH CENTER,625 SOUTH KENTUCKY,ASHLAND,KS,67831,CLARK,(620) 635-2241,Critical Access Hospitals,Voluntary non-profit - Other,Yes,Y,,Not Available,16,7,Not Available,Not Available,Not Available,Not Available,5,8,Not Available,Not Available,Not Available,Not Available,5,11,Not Available,Not Available,Not Available,Not Available,5,8,Not Available,5,12,3,,,37.1902572,-99.7797746
41323,ASHLEY COUNTY MEDICAL CENTER,1015 UNITY ROAD,CROSSETT,AR,71635,ASHLEY,(870) 364-4111,Critical Access Hospitals,Voluntary non-profit - Private,Yes,,,4,,7,4,0,4,0,,8,1,0,1,0,,11,4,0,3,1,,8,Not Available,5,12,3,,,33.1384943,-91.9388616
351322,ASHLEY MEDICAL CENTER,612 CENTER AVENUE N,ASHLEY,ND,58413,MCINTOSH,(701) 288-3433,Critical Access Hospitals,Voluntary non-profit - Private,Yes,Y,,Not Available,16,7,Not Available,Not Available,Not Available,Not Available,5,8,Not Available,Not Available,Not Available,Not Available,5,11,1,0,1,0,,8,Not Available,5,12,3,,,46.039969,-99.3727366
460030,ASHLEY REGIONAL MEDICAL CENTER,150 WEST 100 NORTH,VERNAL,UT,84078,UINTAH,(435) 789-3342,Acute Care Hospitals,Proprietary,Yes,Y,Y,Not Available,16,7,2,0,2,0,,8,2,0,2,0,,11,5,0,5,0,,8,8,,12,8,,,40.4573865,-109.5310091
360125,ASHTABULA COUNTY MEDICAL CENTER,2420 LAKE AVENUE,ASHTABULA,OH,44004,ASHTABULA,(440) 997-2262,Acute Care Hospitals,Voluntary non-profit - Private,Yes,Y,,3,,7,5,0,5,0,,8,6,1,5,0,,11,9,0,8,1,,8,8,,12,9,,,41.8809607,-80.7947779
400004,"ASOCIACION HOSPITAL DEL MAESTRO, INC",SERGIO CUEVAS BUSTAMANTE STREET 550,SAN JUAN,PR,936,SAN JUAN,(787) 758-6420,Acute Care Hospitals,Voluntary non-profit - Private,Yes,,,Not Available,16,7,1,0,1,0,,8,Not Available,Not Available,Not Available,Not Available,5,11,2,0,1,1,,8,Not Available,5,12,Not Available,5,,18.4110886,-66.0685076
464014,ASPEN GROVE BEHAVIORAL HOSPITAL,1350 EAST 750 NORTH,OREM,UT,84097,UTAH,(801) 852-2273,Psychiatric,Proprietary,No,,,Not Available,19,Not Available,Not Available,Not Available,Not Available,Not Available,19,Not Available,Not Available,Not Available,Not Available,Not Available,19,Not Available,Not Available,Not Available,Not Available,Not Available,19,Not Available,Not Available,19,Not Available,Not Available,19,,40.3105267,-111.6635225
314023,ASPEN HILLS HEALTHCARE CENTER,600 PEMBERTON-BROWNS MILLS ROAD,PEMBERTON,NJ,8068,BURLINGTON,(609) 836-6100,Psychiatric,Proprietary,No,,,Not Available,19,Not Available,Not Available,Not Available,Not Available,Not Available,19,Not Available,Not Available,Not Available,Not Available,Not Available,19,Not Available,Not Available,Not Available,Not Available,Not Available,19,Not Available,Not Available,19,Not Available,Not Available,19,,39.9666259,-74.6481013
61324,ASPEN VALLEY HOSPITAL,401 CASTLE CREEK RD,ASPEN,CO,81611,PITKIN,(970) 544-1261,Critical Access Hospitals,Government - Hospital District or Authority,Yes,Y,,Not Available,16,7,Not Available,Not Available,Not Available,Not Available,5,8,Not Available,Not Available,Not Available,Not Available,5,11,3,0,3,0,,8,Not Available,5,12,6,,,39.1903503,-106.8391221
104067,ASPIRE HEALTH PARTNERS,1800 MERCY DR,ORLANDO,FL,32808,ORANGE,(407) 875-3700,Psychiatric,Voluntary non-profit - Private,No,,,Not Available,19,Not Available,Not Available,Not Available,Not Available,Not Available,19,Not Available,Not Available,Not Available,Not Available,Not Available,19,Not Available,Not Available,Not Available,Not Available,Not Available,19,Not Available,Not Available,19,Not Available,Not Available,19,,28.5672973,-81.4349997
670093,ASPIRE HOSPITAL,"2006 SOUTH LOOP 336 WEST, SUITE 500",CONROE,TX,77304,MONTGOMERY,(936) 647-3500,Acute Care Hospitals,Physician,No,,,Not Available,16,7,Not Available,Not Available,Not Available,Not Available,5,8,1,0,1,0,,11,Not Available,Not Available,Not Available,Not Available,5,8,Not Available,5,12,2,,,30.2845547,-95.480264
521300,ASPIRUS EAGLE RIVER HOSPITAL,201 HOSPITAL ROAD,EAGLE RIVER,WI,54521,VILAS,(715) 479-7411,Critical Access Hospitals,Voluntary non-profit - Private,Yes,Y,,Not Available,16,7,Not Available,Not Available,Not Available,Not Available,5,8,Not Available,Not Available,Not Available,Not Available,5,11,1,0,1,0,,8,Not Available,5,12,6,,,45.9282901,-89.250522
231318,"ASPIRUS IRON RIVER HOSPITAL & CLINICS, INC",1400 W ICE LAKE ROAD,IRON RIVER,MI,49935,IRON,(906) 265-6121,Critical Access Hospitals,Voluntary non-profit - Other,Yes,Y,,Not Available,16,7,2,0,2,0,,8,Not Available,Not Available,Not Available,Not Available,5,11,3,1,2,0,,8,Not Available,5,12,4,,,46.099776,-88.6192324
231333,ASPIRUS IRONWOOD HOSPITAL,N10561 GRAND VIEW LANE,IRONWOOD,MI,49938,GOGEBIC,(906) 932-2525,Critical Access Hospitals,Voluntary non-profit - Private,Yes,Y,,4,,7,3,0,3,0,,8,1,0,1,0,,11,4,0,3,1,,8,8,,12,5,,,46.4782836,-90.1057372
231319,ASPIRUS KEWEENAW HOSPITAL AND CLINICS,205 OSCEOLA,LAURIUM,MI,49913,HOUGHTON,(906) 337-6500,Critical Access Hospitals,Voluntary non-profit - Private,Yes,Y,,Not Available,16,7,2,0,2,0,,8,Not Available,Not Available,Not Available,Not Available,5,11,5,0,5,0,,8,Not Available,5,12,5,,,47.2387168,-88.4435429
521324,"ASPIRUS MEDFORD HOSPITAL & CLINICS, INC",135 S GIBSON ST,MEDFORD,WI,54451,TAYLOR,(715) 748-8100,Critical Access Hospitals,Voluntary non-profit - Private,Yes,Y,,Not Available,16,7,1,0,1,0,,8,1,0,1,0,,11,4,0,4,0,,8,8,,12,7,,,45.1347274,-90.3545201
521339,ASPIRUS MERRILL HOSPITAL,601 S CENTER AVE,MERRILL,WI,54452,LINCOLN,(715) 536-5511,Critical Access Hospitals,Voluntary non-profit - Church,Yes,Y,,Not Available,16,7,1,0,1,0,,8,Not Available,Not Available,Not Available,Not Available,5,11,2,0,2,0,,8,Not Available,5,12,6,,,45.1753285,-89.6814352
231309,ASPIRUS ONTONAGON HOSPITAL INC,601 S SEVENTH ST,ONTONAGON,MI,49953,ONTONAGON,(906) 884-8000,Critical Access Hospitals,Government - Local,Yes,Y,,Not Available,16,7,Not Available,Not Available,Not Available,Not Available,5,8,Not Available,Not Available,Not Available,Not Available,5,11,1,0,1,0,,8,Not Available,5,12,4,,,46.8658435,-89.3003762
520019,ASPIRUS RHINELANDER HOSPITAL,2251 NORTH SHORE DR,RHINELANDER,WI,54501,ONEIDA,(715) 361-2000,Acute Care Hospitals,Voluntary non-profit - Private,Yes,Y,Y,3,,7,4,0,4,0,,8,2,0,2,0,,11,8,1,7,0,,8,8,,12,10,,,45.6368766,-89.3165188
520033,ASPIRUS RIVERVIEW HOSPITAL & CLINICS INC,410 DEWEY ST,WISCONSIN RAPIDS,WI,54495,WOOD,(715) 423-6060,Acute Care Hospitals,Voluntary non-profit - Private,Yes,Y,Y,3,,7,4,0,4,0,,8,4,0,4,0,,11,9,1,7,1,,8,8,,12,9,,,44.3817334,-89.8303048
521311,ASPIRUS STANLEY HOSPITAL,1120 PINE ST,STANLEY,WI,54768,CHIPPEWA,(715) 644-5571,Critical Access Hospitals,Voluntary non-profit - Private,Yes,Y,,Not Available,16,7,Not Available,Not Available,Not Available,Not Available,5,8,Not Available,Not Available,Not Available,Not Available,5,11,3,1,2,0,,8,Not Available,5,12,6,,,44.9536012,-90.9186653
520002,"ASPIRUS STEVENS POINT HOSPITAL & CLINICS, INC.",900 ILLINOIS AVE,STEVENS POINT,WI,54481,PORTAGE,(715) 346-5000,Acute Care Hospitals,Voluntary non-profit - Church,Yes,Y,Y,4,,7,5,0,5,0,,8,3,1,2,0,,11,8,0,7,1,,8,8,,12,9,,,44.5267124,-89.5671536
521313,ASPIRUS TOMAHAWK HOSPITAL,401 W MOHAWK DR  SUITE 100,TOMAHAWK,WI,54487,LINCOLN,(715) 453-7700,Critical Access Hospitals,Voluntary non-profit - Private,Yes,Y,,Not Available,16,7,Not Available,Not Available,Not Available,Not Available,5,8,Not Available,Not Available,Not Available,Not Available,5,11,1,0,1,0,,8,Not Available,5,12,5,,,45.48661,-89.734866
520030,ASPIRUS WAUSAU HOSPITAL,333 PINE RIDGE BLVD,WAUSAU,WI,54401,MARATHON,(715) 847-2121,Acute Care Hospitals,Proprietary,Yes,Y,Y,4,,7,7,0,7,0,,8,7,2,5,0,,11,11,2,9,0,,8,8,,12,10,,,44.9657037,-89.6686901
364056,ASSURANCE HEALTH CINCINNATI LLC,11690 GROOMS ROAD,CINCINNATI,OH,45242,HAMILTON,(513) 469-7800,Psychiatric,Voluntary non-profit - Private,Yes,,,Not Available,19,Not Available,Not Available,Not Available,Not Available,Not Available,19,Not Available,Not Available,Not Available,Not Available,Not Available,19,Not Available,Not Available,Not Available,Not Available,Not Available,19,Not Available,Not Available,19,Not Available,Not Available,19,,39.2819649,-84.3677594
364059,ASSURANCE HEALTH HUDSON LLC,6260 HUDSON CROSSING PKWY,HUDSON,OH,44236,SUMMIT,(330) 208-9317,Psychiatric,Proprietary,No,,,Not Available,19,Not Available,Not Available,Not Available,Not Available,Not Available,19,Not Available,Not Available,Not Available,Not Available,Not Available,19,Not Available,Not Available,Not Available,Not Available,Not Available,19,Not Available,Not Available,19,Not Available,Not Available,19,,41.2362865,-81.4879447
154064,ASSURANCE HEALTH PSYCHIATRIC HOSPITAL,900 NORTH HIGH SCHOOL ROAD,INDIANAPOLIS,IN,46214,MARION,(317) 982-3715,Psychiatric,Proprietary,No,,,Not Available,19,Not Available,Not Available,Not Available,Not Available,Not Available,19,Not Available,Not Available,Not Available,Not Available,Not Available,19,Not Available,Not Available,Not Available,Not Available,Not Available,19,Not Available,Not Available,19,Not Available,Not Available,19,,39.7776025,-86.2732302
241354,ASTERA HEALTH,421 11TH STREET NW,WADENA,MN,56482,WADENA,(218) 631-7489,Critical Access Hospitals,Voluntary non-profit - Other,Yes,Y,,Not Available,16,7,2,0,2,0,,8,2,0,2,0,,11,4,0,4,0,,8,8,,12,3,,,46.4515223,-95.1587519
501330,ASTRIA SUNNYSIDE HOSPITAL,1016 TACOMA AVENUE,SUNNYSIDE,WA,98944,YAKIMA,(509) 837-1500,Critical Access Hospitals,Voluntary non-profit - Other,Yes,Y,Y,1,,7,3,0,3,0,,8,2,0,2,0,,11,3,0,2,1,,8,8,,12,7,,,46.322686,-120.0066774
500037,ASTRIA TOPPENISH HOSPITAL,502 W FOURTH AVE,TOPPENISH,WA,98948,YAKIMA,(509) 865-1520,Acute Care Hospitals,Voluntary non-profit - Private,Yes,Y,Y,Not Available,16,7,Not Available,Not Available,Not Available,Not Available,5,8,Not Available,Not Available,Not Available,Not Available,5,11,3,0,3,0,,8,8,,12,8,,,46.3708289,-120.3169181
10079,ATHENS LIMESTONE HOSPITAL,700 WEST MARKET STREET,ATHENS,AL,35611,LIMESTONE,(256) 233-9292,Acute Care Hospitals,Government - Hospital District or Authority,Yes,Y,,2,,7,4,0,3,1,,8,6,0,6,0,,11,7,0,5,2,,8,8,,12,10,,,34.8042983,-86.9791329
221303,ATHOL MEMORIAL HOSPITAL,2033 MAIN STREET,ATHOL,MA,1331,WORCESTER,(978) 249-3511,Critical Access Hospitals,Voluntary non-profit - Private,Yes,Y,,4,,7,3,0,3,0,,8,1,0,1,0,,11,5,0,5,0,,8,Not Available,5,12,7,,,42.585357,-72.2089085
210061,ATLANTIC GENERAL HOSPITAL,9733 HEALTHWAY DRIVE,BERLIN,MD,21811,WORCESTER,(410) 641-1100,Acute Care Hospitals,Voluntary non-profit - Private,Yes,,,4,,7,5,0,5,0,,8,6,0,5,1,,11,8,0,8,0,,8,8,,12,7,,,38.3396404,-75.2115477
310064,ATLANTICARE REGIONAL MEDICAL CENTER - CITY CAMPUS,1925 PACIFIC AVENUE,ATLANTIC CITY,NJ,8401,ATLANTIC,(609) 441-8020,Acute Care Hospitals,Voluntary non-profit - Private,Yes,Y,Y,4,,7,7,0,7,0,,8,8,2,6,0,,11,11,0,9,2,,8,8,,12,9,,,39.3583314,-74.4342891
10169,ATMORE COMMUNITY HOSPITAL,401 MEDICAL PARK DRIVE,ATMORE,AL,36502,ESCAMBIA,(251) 368-2500,Acute Care Hospitals,Government - Hospital District or Authority,Yes,Y,,Not Available,16,7,2,0,2,0,,8,2,0,2,0,,11,4,0,4,0,,8,8,,12,7,,,31.0170596,-87.4788415
371300,ATOKA COUNTY MEDICAL CENTER,1590 WEST LIBERTY ROAD,ATOKA,OK,74525,ATOKA,(580) 889-3333,Critical Access Hospitals,Government - Hospital District or Authority,Yes,,,Not Available,16,7,3,0,3,0,,8,Not Available,Not Available,Not Available,Not Available,5,11,4,1,3,0,,8,Not Available,5,12,2,,,34.3924904,-96.1514558
340084,ATRIUM HEALTH ANSON,2301 US HIGHWAY 74 WEST,WADESBORO,NC,28170,ANSON,(704) 694-5131,Acute Care Hospitals,Government - Hospital District or Authority,Yes,Y,,Not Available,16,7,Not Available,Not Available,Not Available,Not Available,5,8,Not Available,Not Available,Not Available,Not Available,5,11,1,0,1,0,,8,Not Available,5,12,5,,,34.6170558,-79.1317498
340021,ATRIUM HEALTH CLEVELAND,201 E GROVER ST,SHELBY,NC,28150,CLEVELAND,(704) 487-3000,Acute Care Hospitals,Government - Hospital District or Authority,Yes,Y,Y,3,,7,6,0,5,1,,8,7,1,6,0,,11,9,0,9,0,,8,8,,12,12,,,35.3020407,-81.5368441
110054,ATRIUM HEALTH FLOYD MEDICAL CENTER,304 TURNER MCCALL BOULEVARD,ROME,GA,30162,FLOYD,(706) 509-6900,Acute Care Hospitals,Government - Hospital District or Authority,Yes,Y,Y,2,,7,6,0,6,0,,8,8,1,7,0,,11,8,0,8,0,,8,8,,12,10,,,34.2593708,-85.1783926
111330,ATRIUM HEALTH FLOYD POLK MEDICAL CENTER,2360 ROCKMART HIGHWAY,CEDARTOWN,GA,30125,POLK,(770) 748-2500,Critical Access Hospitals,Voluntary non-profit - Private,Yes,Y,,Not Available,16,7,Not Available,Not Available,Not Available,Not Available,5,8,1,0,1,0,,11,Not Available,Not Available,Not Available,Not Available,5,8,Not Available,5,12,5,,,34.0139571,-85.1964567
340145,ATRIUM HEALTH LINCOLN,433 MCALISTER RD,LINCOLNTON,NC,28092,LINCOLN,(980) 212-2000,Acute Care Hospitals,Government - Hospital District or Authority,Yes,Y,Y,5,,7,4,0,4,0,,8,5,1,4,0,,11,6,0,6,0,,8,8,,12,12,,,35.4897762,-81.2029807
111310,ATRIUM HEALTH NAVICENT PEACH,1960 HIGHWAY 247 CONNECTOR,BYRON,GA,31008,PEACH,(478) 654-2000,Critical Access Hospitals,Government - Hospital District or Authority,Yes,Y,,Not Available,16,7,2,0,2,0,,8,1,0,1,0,,11,3,1,2,0,,8,8,,12,7,,,32.6049412,-83.7591299
110107,ATRIUM HEALTH NAVICENT THE MEDICAL CENTER,777 HEMLOCK STREET,MACON,GA,31201,BIBB,(478) 633-1000,Acute Care Hospitals,Government - Hospital District or Authority,Yes,Y,Y,1,,7,7,0,6,1,,8,8,2,4,2,,11,11,0,7,4,,8,8,,12,9,,,32.8338572,-83.6365523
340098,ATRIUM HEALTH PINEVILLE,10628 PARK RD,CHARLOTTE,NC,28210,MECKLENBURG,(704) 379-5000,Acute Care Hospitals,Government - Hospital District or Authority,Yes,Y,Y,3,,7,7,0,7,0,,8,7,3,4,0,,11,9,0,8,1,,8,8,,12,10,,,35.0920503,-80.8718834
340130,ATRIUM HEALTH UNION,600 HOSPITAL DR,MONROE,NC,28112,UNION,(704) 283-3100,Acute Care Hospitals,Government - Hospital District or Authority,Yes,Y,Y,3,,7,6,0,6,0,,8,7,1,5,1,,11,8,0,6,2,,8,8,,12,11,,,34.9753713,-80.5228634
340166,ATRIUM HEALTH UNIVERSITY CITY,8800 NORTH TYRON STREET,CHARLOTTE,NC,28262,MECKLENBURG,(704) 548-6000,Acute Care Hospitals,Government - Hospital District or Authority,Yes,Y,Y,4,,7,4,0,4,0,,8,6,1,5,0,,11,6,2,4,0,,8,8,,12,10,,,35.3066306,-80.7472512
360076,ATRIUM MEDICAL CENTER,ONE MEDICAL CENTER DRIVE,FRANKLIN,OH,45005,WARREN,(513) 974-4710,Acute Care Hospitals,Voluntary non-profit - Private,Yes,Y,Y,4,,7,7,0,7,0,,8,6,3,3,0,,11,7,0,7,0,,8,8,,12,11,,,39.4993631,-84.3154681
110034,AU MEDICAL CENTER,1120 15TH STREET,AUGUSTA,GA,30912,RICHMOND,(706) 721-6569,Acute Care Hospitals,Voluntary non-profit - Other,Yes,Y,Y,2,,7,7,0,7,0,,8,7,1,6,0,,11,10,0,9,1,,8,8,,12,10,,,33.4712347,-81.9905825
330235,AUBURN  COMMUNITY  HOSPITAL,17 LANSING STREET,AUBURN,NY,13021,CAYUGA,(315) 255-7011,Acute Care Hospitals,Voluntary non-profit - Private,Yes,,Y,3,,7,5,1,4,0,,8,6,0,6,0,,11,9,0,8,1,,8,8,,12,8,,,42.9413152,-76.5639208
161330,AUDUBON COUNTY MEMORIAL HOSPITAL,515 PACIFIC AVENUE,AUDUBON,IA,50025,AUDUBON,(712) 563-2611,Critical Access Hospitals,Government - Local,Yes,Y,,Not Available,16,7,Not Available,Not Available,Not Available,Not Available,5,8,Not Available,Not Available,Not Available,Not Available,5,11,1,0,1,0,,8,Not Available,5,12,5,,,41.7153614,-94.9378176
490018,AUGUSTA HEALTH,78 MEDICAL CENTER DRIVE,FISHERSVILLE,VA,22939,AUGUSTA,(540) 332-4000,Acute Care Hospitals,Voluntary non-profit - Private,Yes,Y,Y,4,,7,6,0,5,1,,8,7,1,6,0,,11,10,4,5,1,,8,8,,12,11,,,38.094358,-78.986591
11030F,AUGUSTA VA MEDICAL CENTER,1 FREEDOM WAY,AUGUSTA,GA,30904,RICHMOND,(706) 823-2201,Acute Care - Veterans Administration,Veterans Health Administration,Yes,,,2,,7,5,0,5,0,,8,4,0,4,0,,11,6,0,5,1,,8,8,,12,5,,,33.4647325,-82.0259836
360084,AULTMAN HOSPITAL,2600 SIXTH STREET SW,CANTON,OH,44710,STARK,(330) 363-9911,Acute Care Hospitals,Voluntary non-profit - Other,Yes,Y,Y,4,,7,7,0,7,0,,8,8,1,7,0,,11,11,0,11,0,,8,8,,12,10,,,40.7967119,-81.4037873
361323,AULTMAN ORRVILLE HOSPITAL,832 SOUTH MAIN STREET,ORRVILLE,OH,44667,WAYNE,(330) 682-3010,Critical Access Hospitals,Voluntary non-profit - Private,Yes,Y,Y,Not Available,16,7,Not Available,Not Available,Not Available,Not Available,5,8,1,0,1,0,,11,3,0,3,0,,8,8,,12,7,,,40.8319512,-81.7641064
330085,AURELIA OSBORN FOX MEMORIAL HOSPITAL,ONE NORTON AVENUE,ONEONTA,NY,13820,OTSEGO,(607) 432-2000,Acute Care Hospitals,Voluntary non-profit - Private,Yes,Y,,2,,7,4,0,4,0,,8,3,0,3,0,,11,7,0,7,0,,8,8,,12,8,,,42.4574316,-75.0526809
520193,AURORA BAYCARE MEDICAL CTR,2845 GREENBRIER RD,GREEN BAY,WI,54311,BROWN,(920) 288-8000,Acute Care Hospitals,Proprietary,Yes,Y,Y,5,,7,7,0,7,0,,8,7,1,6,0,,11,11,1,10,0,,8,8,,12,10,,,44.4750182,-87.9406873
34024,AURORA BEHAVIORAL HEALTH SYSTEM,6015 WEST PEORIA  AVENUE,GLENDALE,AZ,85302,MARICOPA,(623) 344-4400,Psychiatric,Proprietary,No,,,Not Available,19,Not Available,Not Available,Not Available,Not Available,Not Available,19,Not Available,Not Available,Not Available,Not Available,Not Available,19,Not Available,Not Available,Not Available,Not Available,Not Available,19,Not Available,Not Available,19,Not Available,Not Available,19,,33.5808632,-112.1892939
54151,"AURORA BEHAVIORAL HEALTHCARE-SANTA ROSA, LLC",1287 FULTON ROAD,SANTA ROSA,CA,95401,SONOMA,(707) 800-7700,Psychiatric,Proprietary,Yes,,,Not Available,19,Not Available,Not Available,Not Available,Not Available,Not Available,19,Not Available,Not Available,Not Available,Not Available,Not Available,19,Not Available,Not Available,Not Available,Not Available,Not Available,19,Not Available,Not Available,19,Not Available,Not Available,19,,38.4503421,-122.7716505
34028,AURORA BEHAVIORAL HEALTHCARE-TEMPE,6350 SOUTH MAPLE AVENUE,TEMPE,AZ,85283,MARICOPA,(480) 345-5400,Psychiatric,Proprietary,No,,,Not Available,19,Not Available,Not Available,Not Available,Not Available,Not Available,19,Not Available,Not Available,Not Available,Not Available,Not Available,19,Not Available,Not Available,Not Available,Not Available,Not Available,19,Not Available,Not Available,19,Not Available,Not Available,19,,33.3643978,-111.9395161
54069,AURORA CHARTER OAK,1161 E COVINA BLVD,COVINA,CA,91724,LOS ANGELES,(626) 966-1632,Psychiatric,Voluntary non-profit - Church,Yes,,,Not Available,19,Not Available,Not Available,Not Available,Not Available,Not Available,19,Not Available,Not Available,Not Available,Not Available,Not Available,19,Not Available,Not Available,Not Available,Not Available,Not Available,19,Not Available,Not Available,19,Not Available,Not Available,19,,34.0998193,-117.8664669
520035,AURORA HEALTH CARE CENTRAL INC,3400 UNION AVE,SHEBOYGAN,WI,53081,SHEBOYGAN,(920) 451-5000,Acute Care Hospitals,Voluntary non-profit - Private,Yes,Y,Y,4,,7,4,0,4,0,,8,6,1,5,0,,11,9,1,8,0,,8,8,,12,10,,,43.7330079,-87.7542811
520102,AURORA LAKELAND MEDICAL CENTER,W3985 COUNTY ROAD NN,ELKHORN,WI,53121,WALWORTH,(262) 741-2000,Acute Care Hospitals,Voluntary non-profit - Private,Yes,Y,Y,5,,7,4,0,4,0,,8,3,0,3,0,,11,6,2,4,0,,8,8,,12,10,,,42.6618711,-88.4965331
54078,AURORA LAS ENCINAS,2900 E DEL MAR BLVD,PASADENA,CA,91107,LOS ANGELES,(866) 279-3709,Psychiatric,Proprietary,No,,,Not Available,19,Not Available,Not Available,Not Available,Not Available,Not Available,19,Not Available,Not Available,Not Available,Not Available,Not Available,19,Not Available,Not Available,Not Available,Not Available,Not Available,19,Not Available,Not Available,19,Not Available,Not Available,19,,34.1413425,-118.0914424
520207,AURORA MEDICAL CENTER,975 PORT WASHINGTON ROAD,GRAFTON,WI,53024,OZAUKEE,(262) 329-1000,Acute Care Hospitals,Voluntary non-profit - Private,Yes,Y,Y,5,,7,7,0,7,0,,8,7,0,7,0,,11,9,0,8,1,,8,8,,12,10,,,43.3236969,-87.9285783
520206,AURORA MEDICAL CENTER - SUMMIT,36500 AURORA DRIVE,SUMMIT,WI,53066,WAUKESHA,(262) 434-1600,Acute Care Hospitals,Voluntary non-profit - Private,Yes,Y,Y,4,,7,6,0,6,0,,8,7,0,7,0,,11,8,3,4,1,,8,8,,12,9,,,43.0658355,-88.4675169
520189,AURORA MEDICAL CENTER KENOSHA,10400 75TH ST,KENOSHA,WI,53142,KENOSHA,(262) 948-5600,Acute Care Hospitals,Voluntary non-profit - Private,Yes,Y,Y,4,,7,5,0,5,0,,8,7,0,7,0,,11,7,1,6,0,,8,8,,12,12,,,42.5699478,-87.9354718
520034,AURORA MEDICAL CTR MANITOWOC COUNTY,5000 MEMORIAL DRIVE,TWO RIVERS,WI,54241,MANITOWOC,(920) 794-5000,Acute Care Hospitals,Voluntary non-profit - Private,Yes,Y,Y,Not Available,16,7,2,0,2,0,,8,2,0,2,0,,11,5,1,4,0,,8,8,,12,10,,,44.1262675,-87.6167597
520198,AURORA MEDICAL CTR OSHKOSH,855 N WESTHAVEN DRIVE,OSHKOSH,WI,54904,WINNEBAGO,(920) 456-6000,Acute Care Hospitals,Voluntary non-profit - Private,Yes,Y,Y,4,,7,3,0,3,0,,8,5,0,5,0,,11,8,0,8,0,,8,8,,12,10,,,44.0275281,-88.5956277
520038,AURORA MEDICAL CTR WASHINGTON COUNTY,1032 E SUMNER ST,HARTFORD,WI,53027,WASHINGTON,(262) 673-2300,Acute Care Hospitals,Voluntary non-profit - Private,Yes,Y,,5,,7,3,0,3,0,,8,2,0,2,0,,11,6,0,6,0,,8,8,,12,9,,,43.318278,-88.3623227
520059,AURORA MEMORIAL HOSPITAL BURLINGTON,252 MCHENRY ST,BURLINGTON,WI,53105,RACINE,(262) 767-6536,Acute Care Hospitals,Voluntary non-profit - Private,Yes,Y,,4,,7,2,0,2,0,,8,5,0,5,0,,11,5,2,3,0,,8,8,,12,10,,,42.6728458,-88.2814716
524000,AURORA PSYCHIATRIC HOSPITAL,1220 DEWEY AVE,WAUWATOSA,WI,53213,MILWAUKEE,(414) 454-6600,Psychiatric,Voluntary non-profit - Private,No,,,Not Available,19,Not Available,Not Available,Not Available,Not Available,Not Available,19,Not Available,Not Available,Not Available,Not Available,Not Available,19,Not Available,Not Available,Not Available,Not Available,Not Available,19,Not Available,Not Available,19,Not Available,Not Available,19,,43.0466357,-88.0109955
54095,AURORA SAN DIEGO,11878 AVENUE OF INDUSTRY,SAN DIEGO,CA,92128,SAN DIEGO,(858) 487-3200,Psychiatric,Proprietary,No,,,Not Available,19,Not Available,Not Available,Not Available,Not Available,Not Available,19,Not Available,Not Available,Not Available,Not Available,Not Available,19,Not Available,Not Available,Not Available,Not Available,Not Available,19,Not Available,Not Available,19,Not Available,Not Available,19,,32.9913251,-117.0749492
520138,AURORA ST LUKES MEDICAL CENTER,2900 W OKLAHOMA AVE,MILWAUKEE,WI,53215,MILWAUKEE,(414) 649-6000,Acute Care Hospitals,Voluntary non-profit - Private,Yes,Y,Y,3,,7,7,2,5,0,,8,8,3,2,3,,11,11,0,8,3,,8,8,,12,11,,,42.9893671,-87.9509411
54077,AURORA VISTA DEL MAR HOSPITAL,801 SENECA ST,VENTURA,CA,93001,VENTURA,(805) 653-6434,Psychiatric,Proprietary,No,,,Not Available,19,Not Available,Not Available,Not Available,Not Available,Not Available,19,Not Available,Not Available,Not Available,Not Available,Not Available,19,Not Available,Not Available,Not Available,Not Available,Not Available,19,Not Available,Not Available,19,Not Available,Not Available,19,,34.3077504,-119.2836782
454121,AUSTIN OAKS HOSPITAL,1407 WEST STASSNEY LANE,AUSTIN,TX,78745,TRAVIS,(512) 383-8939,Psychiatric,Proprietary,No,,,Not Available,19,Not Available,Not Available,Not Available,Not Available,Not Available,19,Not Available,Not Available,Not Available,Not Available,Not Available,19,Not Available,Not Available,Not Available,Not Available,Not Available,19,Not Available,Not Available,19,Not Available,Not Available,19,,30.2115991,-97.7923826
454084,AUSTIN STATE HOSPITAL,4110 GUADALUPE,AUSTIN,TX,78751,TRAVIS,(512) 419-2100,Psychiatric,Government - State,No,,,Not Available,19,Not Available,Not Available,Not Available,Not Available,Not Available,19,Not Available,Not Available,Not Available,Not Available,Not Available,19,Not Available,Not Available,Not Available,Not Available,Not Available,19,Not Available,Not Available,19,Not Available,Not Available,19,,30.3091373,-97.7348772
400016,AUXILIO MUTUO HOSPITAL,PONCE DE LEON AVENUE  735 STOP 37 1/2,SAN JUAN,PR,918,SAN JUAN,(787) 758-2000,Acute Care Hospitals,Voluntary non-profit - Private,Yes,,,3,17,7,5,0,5,0,,8,5,2,3,0,,11,6,0,5,1,,8,Not Available,5,12,2,,,18.4089655,-66.0526106
190267,AVALA,67252 INDUSTRY LANE,COVINGTON,LA,70433,ST. TAMMANY,(985) 809-9888,Acute Care Hospitals,Physician,No,Y,,Not Available,16,7,Not Available,Not Available,Not Available,Not Available,5,8,2,0,2,0,,11,3,0,3,0,,8,8,,12,3,,,30.4083631,-90.0817903
34035,AVENIR BEHAVIORAL HEALTH CENTER,16561 NORTH PARKVIEW PLACE,SURPRISE,AZ,85374,MARICOPA,(480) 229-9894,Psychiatric,Proprietary,No,,,Not Available,19,Not Available,Not Available,Not Available,Not Available,Not Available,19,Not Available,Not Available,Not Available,Not Available,Not Available,19,Not Available,Not Available,Not Available,Not Available,Not Available,19,Not Available,Not Available,19,Not Available,Not Available,19,,33.6344689,-112.3812169
